<kml xmlns:atom="http://www.w3.org/2005/Atom" xmlns:gx="http://www.google.com/kml/ext/2.2" xmlns="http://www.opengis.net/kml/2.2"><Document><Folder id="tweets"><name>Tweets</name><Placemark id="598276349715939328"><name>Alyne Beta</name><Point><extrude>1</extrude><altitudeMode>relativeToGround</altitudeMode><coordinates>None,None,0</coordinates></Point><description>&lt;map object at 0x04352870&gt;</description></Placemark><Placemark id="598276278236643328"><name>Jimmy Trammell</name><Point><extrude>1</extrude><altitudeMode>relativeToGround</altitudeMode><coordinates>None,None,0</coordinates></Point><description>&lt;map object at 0x043521D0&gt;</description></Placemark><Placemark id="598276260813545473"><name>Herry Rachmadyanto</name><Point><extrude>1</extrude><altitudeMode>relativeToGround</altitudeMode><coordinates>107.519508,-6.8850051,0</coordinates></Point><description>&lt;map object at 0x04352190&gt;</description></Placemark><Placemark id="598276105892712448"><name>Anna Jailene Aguilar</name><Point><extrude>1</extrude><altitudeMode>relativeToGround</altitudeMode><coordinates>-118.23887587,34.04502335,0</coordinates></Point><description>&lt;map object at 0x04352FD0&gt;</description></Placemark><Placemark id="598276101094416384"><name>Alyne Beta</name><Point><extrude>1</extrude><altitudeMode>relativeToGround</altitudeMode><coordinates>None,None,0</coordinates></Point><description>&lt;map object at 0x043521D0&gt;</description></Placemark><Placemark id="598276010157731842"><name>Alyne Beta</name><Point><extrude>1</extrude><altitudeMode>relativeToGround</altitudeMode><coordinates>None,None,0</coordinates></Point><description>&lt;map object at 0x04352190&gt;</description></Placemark><Placemark id="598275591260008448"><name>Alyne Beta</name><Point><extrude>1</extrude><altitudeMode>relativeToGround</altitudeMode><coordinates>None,None,0</coordinates></Point><description>&lt;map object at 0x04352FD0&gt;</description></Placemark><Placemark id="598275519180738560"><name>Victor Esteves</name><Point><extrude>1</extrude><altitudeMode>relativeToGround</altitudeMode><coordinates>None,None,0</coordinates></Point><description>&lt;map object at 0x043521D0&gt;</description></Placemark><Placemark id="598275275785371649"><name>mateus silva</name><Point><extrude>1</extrude><altitudeMode>relativeToGround</altitudeMode><coordinates>-42.65566635,-19.54396248,0</coordinates></Point><description>&lt;map object at 0x04352190&gt;</description></Placemark><Placemark id="598275132432510976"><name>Steve's OKC Central</name><Point><extrude>1</extrude><altitudeMode>relativeToGround</altitudeMode><coordinates>-97.50828763,35.68448293,0</coordinates></Point><description>&lt;map object at 0x04352FD0&gt;</description></Placemark><Placemark id="598275098873876481"><name>&#63723;Rick&#63723;</name><Point><extrude>1</extrude><altitudeMode>relativeToGround</altitudeMode><coordinates>-85.29076912,35.11873647,0</coordinates></Point><description>&lt;map object at 0x043521D0&gt;</description></Placemark><Placemark id="598275031370727424"><name>mateus silva</name><Point><extrude>1</extrude><altitudeMode>relativeToGround</altitudeMode><coordinates>-42.66585922,-19.55282402,0</coordinates></Point><description>&lt;map object at 0x04352190&gt;</description></Placemark><Placemark id="598274750008295424"><name>Clarissa</name><Point><extrude>1</extrude><altitudeMode>relativeToGround</altitudeMode><coordinates>None,None,0</coordinates></Point><description>&lt;map object at 0x04352FD0&gt;</description></Placemark><Placemark id="598274325242851328"><name>Jonathan S. Ryu</name><Point><extrude>1</extrude><altitudeMode>relativeToGround</altitudeMode><coordinates>None,None,0</coordinates></Point><description>&lt;map object at 0x043521D0&gt;</description></Placemark><Placemark id="598273869632405504"><name>Katrina Hope Velasco</name><Point><extrude>1</extrude><altitudeMode>relativeToGround</altitudeMode><coordinates>None,None,0</coordinates></Point><description>&lt;map object at 0x04352190&gt;</description></Placemark><Placemark id="598273865563930624"><name>Bonnie Baker</name><Point><extrude>1</extrude><altitudeMode>relativeToGround</altitudeMode><coordinates>-95.88311481,41.13413614,0</coordinates></Point><description>&lt;map object at 0x04352FD0&gt;</description></Placemark><Placemark id="598273683334004736"><name>Laura Swartz</name><Point><extrude>1</extrude><altitudeMode>relativeToGround</altitudeMode><coordinates>-75.18519938,39.95210073,0</coordinates></Point><description>&lt;map object at 0x043521D0&gt;</description></Placemark><Placemark id="598273292366172162"><name>emily orofino</name><Point><extrude>1</extrude><altitudeMode>relativeToGround</altitudeMode><coordinates>-73.99176928,40.72623395,0</coordinates></Point><description>&lt;map object at 0x04352190&gt;</description></Placemark><Placemark id="598272481040986112"><name>Much Video Dan</name><Point><extrude>1</extrude><altitudeMode>relativeToGround</altitudeMode><coordinates>None,None,0</coordinates></Point><description>&lt;map object at 0x04352FD0&gt;</description></Placemark><Placemark id="598272406839554048"><name>Vic Dinovici</name><Point><extrude>1</extrude><altitudeMode>relativeToGround</altitudeMode><coordinates>-79.39904054,43.70741289,0</coordinates></Point><description>&lt;map object at 0x043521D0&gt;</description></Placemark><Placemark id="598272393304477696"><name>FELIPE CANO</name><Point><extrude>1</extrude><altitudeMode>relativeToGround</altitudeMode><coordinates>-101.42668159,26.91883531,0</coordinates></Point><description>&lt;map object at 0x04352190&gt;</description></Placemark><Placemark id="598272246017355776"><name>Monica Simmons</name><Point><extrude>1</extrude><altitudeMode>relativeToGround</altitudeMode><coordinates>-75.16962924,39.94823206,0</coordinates></Point><description>&lt;map object at 0x04352FD0&gt;</description></Placemark><Placemark id="598271710345994240"><name>Lexelle de Charmaine</name><Point><extrude>1</extrude><altitudeMode>relativeToGround</altitudeMode><coordinates>None,None,0</coordinates></Point><description>&lt;map object at 0x043521D0&gt;</description></Placemark><Placemark id="598271608801886208"><name>M&#931;LISS&#916; CL&#916;IR&#931;</name><Point><extrude>1</extrude><altitudeMode>relativeToGround</altitudeMode><coordinates>-80.23675754,26.26046123,0</coordinates></Point><description>&lt;map object at 0x04352190&gt;</description></Placemark><Placemark id="598271515373744128"><name>Diane Schubach</name><Point><extrude>1</extrude><altitudeMode>relativeToGround</altitudeMode><coordinates>-73.98277044,40.74589142,0</coordinates></Point><description>&lt;map object at 0x04352FD0&gt;</description></Placemark><Placemark id="598271483656409088"><name>Diana H</name><Point><extrude>1</extrude><altitudeMode>relativeToGround</altitudeMode><coordinates>None,None,0</coordinates></Point><description>&lt;map object at 0x043521D0&gt;</description></Placemark><Placemark id="598271417600200704"><name>Thatcher McGhee's</name><Point><extrude>1</extrude><altitudeMode>relativeToGround</altitudeMode><coordinates>None,None,0</coordinates></Point><description>&lt;map object at 0x04352190&gt;</description></Placemark><Placemark id="598271003756765184"><name>Mostly Me Bob H.</name><Point><extrude>1</extrude><altitudeMode>relativeToGround</altitudeMode><coordinates>None,None,0</coordinates></Point><description>&lt;map object at 0x04352FD0&gt;</description></Placemark><Placemark id="598270902783062017"><name>Bonnie Baker</name><Point><extrude>1</extrude><altitudeMode>relativeToGround</altitudeMode><coordinates>-95.9320833,41.15669976,0</coordinates></Point><description>&lt;map object at 0x043521D0&gt;</description></Placemark><Placemark id="598270824387321856"><name>Diana H</name><Point><extrude>1</extrude><altitudeMode>relativeToGround</altitudeMode><coordinates>None,None,0</coordinates></Point><description>&lt;map object at 0x04352190&gt;</description></Placemark><Placemark id="598270757098127361"><name>craig</name><Point><extrude>1</extrude><altitudeMode>relativeToGround</altitudeMode><coordinates>-83.22468122,42.62108726,0</coordinates></Point><description>&lt;map object at 0x04352FD0&gt;</description></Placemark><Placemark id="598270697308364800"><name>Bob Shallenberger</name><Point><extrude>1</extrude><altitudeMode>relativeToGround</altitudeMode><coordinates>-90.42683601,38.54860175,0</coordinates></Point><description>&lt;map object at 0x043521D0&gt;</description></Placemark><Placemark id="598270692841381889"><name>DJ Scotty B</name><Point><extrude>1</extrude><altitudeMode>relativeToGround</altitudeMode><coordinates>-81.35077242,28.54582646,0</coordinates></Point><description>&lt;map object at 0x04352190&gt;</description></Placemark><Placemark id="598270380709703681"><name>Sthefanie</name><Point><extrude>1</extrude><altitudeMode>relativeToGround</altitudeMode><coordinates>-99.16836977,19.36561542,0</coordinates></Point><description>&lt;map object at 0x04352FD0&gt;</description></Placemark><Placemark id="598270212195090432"><name>Juan Torrez</name><Point><extrude>1</extrude><altitudeMode>relativeToGround</altitudeMode><coordinates>None,None,0</coordinates></Point><description>&lt;map object at 0x043521D0&gt;</description></Placemark><Placemark id="598269934548951040"><name>Amanda</name><Point><extrude>1</extrude><altitudeMode>relativeToGround</altitudeMode><coordinates>None,None,0</coordinates></Point><description>&lt;map object at 0x04352190&gt;</description></Placemark><Placemark id="598269459363692544"><name>&#27743;&#25144;&#32773;'s</name><Point><extrude>1</extrude><altitudeMode>relativeToGround</altitudeMode><coordinates>-73.97921219,40.7558988,0</coordinates></Point><description>&lt;map object at 0x04352FD0&gt;</description></Placemark><Placemark id="598269436504715264"><name>P R Annisa D -Chacha</name><Point><extrude>1</extrude><altitudeMode>relativeToGround</altitudeMode><coordinates>106.11821331,-2.13730774,0</coordinates></Point><description>&lt;map object at 0x043521D0&gt;</description></Placemark><Placemark id="598268469986140161"><name>Kristiana</name><Point><extrude>1</extrude><altitudeMode>relativeToGround</altitudeMode><coordinates>-87.62476718,41.87730873,0</coordinates></Point><description>&lt;map object at 0x04352190&gt;</description></Placemark><Placemark id="598268307347795969"><name>&#63723;Rick&#63723;</name><Point><extrude>1</extrude><altitudeMode>relativeToGround</altitudeMode><coordinates>-85.28776633,35.10703638,0</coordinates></Point><description>&lt;map object at 0x04352FD0&gt;</description></Placemark><Placemark id="598267919282393088"><name>Scott Summerton</name><Point><extrude>1</extrude><altitudeMode>relativeToGround</altitudeMode><coordinates>-89.25048134,48.38048756,0</coordinates></Point><description>&lt;map object at 0x043521D0&gt;</description></Placemark><Placemark id="598267863150043138"><name>Tom Harris, WA3RXE</name><Point><extrude>1</extrude><altitudeMode>relativeToGround</altitudeMode><coordinates>-75.2628173,39.96123061,0</coordinates></Point><description>&lt;map object at 0x04352190&gt;</description></Placemark><Placemark id="598267739237650432"><name>Only Unley Road</name><Point><extrude>1</extrude><altitudeMode>relativeToGround</altitudeMode><coordinates>None,None,0</coordinates></Point><description>&lt;map object at 0x04352FD0&gt;</description></Placemark><Placemark id="598267723072733184"><name>Only Unley Road</name><Point><extrude>1</extrude><altitudeMode>relativeToGround</altitudeMode><coordinates>None,None,0</coordinates></Point><description>&lt;map object at 0x043521D0&gt;</description></Placemark><Placemark id="598267699785912320"><name>Only Unley Road</name><Point><extrude>1</extrude><altitudeMode>relativeToGround</altitudeMode><coordinates>None,None,0</coordinates></Point><description>&lt;map object at 0x04352190&gt;</description></Placemark><Placemark id="598267474660950016"><name>&#27743;&#25144;&#32773;'s</name><Point><extrude>1</extrude><altitudeMode>relativeToGround</altitudeMode><coordinates>-73.97857513,40.75874842,0</coordinates></Point><description>&lt;map object at 0x04352FD0&gt;</description></Placemark><Placemark id="598267390078656512"><name>delz</name><Point><extrude>1</extrude><altitudeMode>relativeToGround</altitudeMode><coordinates>103.80947076,1.31952672,0</coordinates></Point><description>&lt;map object at 0x043521D0&gt;</description></Placemark><Placemark id="598267375872532480"><name>Steven Zimmerman</name><Point><extrude>1</extrude><altitudeMode>relativeToGround</altitudeMode><coordinates>-82.68199802,28.26900517,0</coordinates></Point><description>&lt;map object at 0x04352190&gt;</description></Placemark><Placemark id="598267246276911104"><name>Tom Harris, WA3RXE</name><Point><extrude>1</extrude><altitudeMode>relativeToGround</altitudeMode><coordinates>-75.26272616,39.96173956,0</coordinates></Point><description>&lt;map object at 0x04352FD0&gt;</description></Placemark><Placemark id="598267197052604417"><name>jorge jimenez</name><Point><extrude>1</extrude><altitudeMode>relativeToGround</altitudeMode><coordinates>-103.40459745,20.67359585,0</coordinates></Point><description>&lt;map object at 0x043521D0&gt;</description></Placemark><Placemark id="598267070518829057"><name>Mini me</name><Point><extrude>1</extrude><altitudeMode>relativeToGround</altitudeMode><coordinates>-56.09748862,-34.82245468,0</coordinates></Point><description>&lt;map object at 0x04352190&gt;</description></Placemark><Placemark id="598266898485256192"><name>dantran</name><Point><extrude>1</extrude><altitudeMode>relativeToGround</altitudeMode><coordinates>-79.55841733,43.62494245,0</coordinates></Point><description>&lt;map object at 0x04352FD0&gt;</description></Placemark><Placemark id="598266864964370432"><name>Mykie Edwards</name><Point><extrude>1</extrude><altitudeMode>relativeToGround</altitudeMode><coordinates>-76.79423184,18.04785453,0</coordinates></Point><description>&lt;map object at 0x043521D0&gt;</description></Placemark><Placemark id="598266827924312065"><name>Only Unley Road</name><Point><extrude>1</extrude><altitudeMode>relativeToGround</altitudeMode><coordinates>None,None,0</coordinates></Point><description>&lt;map object at 0x04352190&gt;</description></Placemark><Placemark id="598266730847346688"><name>Arthur</name><Point><extrude>1</extrude><altitudeMode>relativeToGround</altitudeMode><coordinates>-76.31919234,36.93015152,0</coordinates></Point><description>&lt;map object at 0x04352FD0&gt;</description></Placemark><Placemark id="598266718738190337"><name>Sena</name><Point><extrude>1</extrude><altitudeMode>relativeToGround</altitudeMode><coordinates>None,None,0</coordinates></Point><description>&lt;map object at 0x043521D0&gt;</description></Placemark><Placemark id="598266635305246720"><name>Matt McClary</name><Point><extrude>1</extrude><altitudeMode>relativeToGround</altitudeMode><coordinates>-74.00176615,40.72863133,0</coordinates></Point><description>&lt;map object at 0x04352190&gt;</description></Placemark><Placemark id="598266565851783168"><name>Happy Valentines Day</name><Point><extrude>1</extrude><altitudeMode>relativeToGround</altitudeMode><coordinates>None,None,0</coordinates></Point><description>&lt;map object at 0x04352FD0&gt;</description></Placemark><Placemark id="598266501897027584"><name>trevor boller</name><Point><extrude>1</extrude><altitudeMode>relativeToGround</altitudeMode><coordinates>-113.60088587,53.43773885,0</coordinates></Point><description>&lt;map object at 0x043521D0&gt;</description></Placemark><Placemark id="598266418531020800"><name>Tengku Putra Aniel</name><Point><extrude>1</extrude><altitudeMode>relativeToGround</altitudeMode><coordinates>None,None,0</coordinates></Point><description>&lt;map object at 0x04352190&gt;</description></Placemark><Placemark id="598266290059509760"><name>Ilan</name><Point><extrude>1</extrude><altitudeMode>relativeToGround</altitudeMode><coordinates>None,None,0</coordinates></Point><description>&lt;map object at 0x04352FD0&gt;</description></Placemark><Placemark id="598266244815560704"><name>jvillanueva67</name><Point><extrude>1</extrude><altitudeMode>relativeToGround</altitudeMode><coordinates>None,None,0</coordinates></Point><description>&lt;map object at 0x043521D0&gt;</description></Placemark><Placemark id="598265950815821824"><name>Kevin Steenburg</name><Point><extrude>1</extrude><altitudeMode>relativeToGround</altitudeMode><coordinates>-79.43070173,43.64200722,0</coordinates></Point><description>&lt;map object at 0x04352190&gt;</description></Placemark><Placemark id="598265895430037504"><name>jvillanueva67</name><Point><extrude>1</extrude><altitudeMode>relativeToGround</altitudeMode><coordinates>None,None,0</coordinates></Point><description>&lt;map object at 0x04352FD0&gt;</description></Placemark><Placemark id="598265743214534656"><name>HAKU</name><Point><extrude>1</extrude><altitudeMode>relativeToGround</altitudeMode><coordinates>139.797812,35.672212,0</coordinates></Point><description>&lt;map object at 0x043521D0&gt;</description></Placemark><Placemark id="598265741759094784"><name>jvillanueva67</name><Point><extrude>1</extrude><altitudeMode>relativeToGround</altitudeMode><coordinates>None,None,0</coordinates></Point><description>&lt;map object at 0x04352190&gt;</description></Placemark><Placemark id="598265483402604544"><name>widi</name><Point><extrude>1</extrude><altitudeMode>relativeToGround</altitudeMode><coordinates>None,None,0</coordinates></Point><description>&lt;map object at 0x04352FD0&gt;</description></Placemark><Placemark id="598265265227431936"><name>Jota Melo</name><Point><extrude>1</extrude><altitudeMode>relativeToGround</altitudeMode><coordinates>-43.97724688,-19.87335422,0</coordinates></Point><description>&lt;map object at 0x043521D0&gt;</description></Placemark><Placemark id="598265131148128256"><name>Andrew Kaczorowski</name><Point><extrude>1</extrude><altitudeMode>relativeToGround</altitudeMode><coordinates>-74.35508454,40.44046945,0</coordinates></Point><description>&lt;map object at 0x04352190&gt;</description></Placemark><Placemark id="598264866433060864"><name>Alex Silva</name><Point><extrude>1</extrude><altitudeMode>relativeToGround</altitudeMode><coordinates>None,None,0</coordinates></Point><description>&lt;map object at 0x04352FD0&gt;</description></Placemark><Placemark id="598264821352640512"><name>Alex Silva</name><Point><extrude>1</extrude><altitudeMode>relativeToGround</altitudeMode><coordinates>None,None,0</coordinates></Point><description>&lt;map object at 0x043521D0&gt;</description></Placemark><Placemark id="598264788498718720"><name>Riszell G. Ira</name><Point><extrude>1</extrude><altitudeMode>relativeToGround</altitudeMode><coordinates>120.98706722,14.60372588,0</coordinates></Point><description>&lt;map object at 0x04352190&gt;</description></Placemark><Placemark id="598263721375506436"><name>Mike Berg</name><Point><extrude>1</extrude><altitudeMode>relativeToGround</altitudeMode><coordinates>-79.53425976,43.64305101,0</coordinates></Point><description>&lt;map object at 0x04352FD0&gt;</description></Placemark><Placemark id="598263088152973312"><name>@myblocktyler</name><Point><extrude>1</extrude><altitudeMode>relativeToGround</altitudeMode><coordinates>None,None,0</coordinates></Point><description>&lt;map object at 0x043521D0&gt;</description></Placemark><Placemark id="598262747156107265"><name>Heather Abbott</name><Point><extrude>1</extrude><altitudeMode>relativeToGround</altitudeMode><coordinates>None,None,0</coordinates></Point><description>&lt;map object at 0x04352190&gt;</description></Placemark><Placemark id="598262494549905408"><name>Jay Baker &#8986;</name><Point><extrude>1</extrude><altitudeMode>relativeToGround</altitudeMode><coordinates>-80.03720284,32.93388413,0</coordinates></Point><description>&lt;map object at 0x04352FD0&gt;</description></Placemark><Placemark id="598261838489526272"><name>&#8226;&#9734; Steph &#9734;&#8226;</name><Point><extrude>1</extrude><altitudeMode>relativeToGround</altitudeMode><coordinates>None,None,0</coordinates></Point><description>&lt;map object at 0x043521D0&gt;</description></Placemark><Placemark id="598261818331680770"><name>Bar&#305;&#351; &#9827; &#214;zdemir</name><Point><extrude>1</extrude><altitudeMode>relativeToGround</altitudeMode><coordinates>28.78954239,41.09491776,0</coordinates></Point><description>&lt;map object at 0x04352190&gt;</description></Placemark><Placemark id="598261811440410624"><name>Sean Flaherty</name><Point><extrude>1</extrude><altitudeMode>relativeToGround</altitudeMode><coordinates>-76.58160031,39.28167449,0</coordinates></Point><description>&lt;map object at 0x04352FD0&gt;</description></Placemark><Placemark id="598261609291722754"><name>sezjeuric</name><Point><extrude>1</extrude><altitudeMode>relativeToGround</altitudeMode><coordinates>-113.49392348,53.46001233,0</coordinates></Point><description>&lt;map object at 0x043521D0&gt;</description></Placemark><Placemark id="598261523513999360"><name>Pizza Nova</name><Point><extrude>1</extrude><altitudeMode>relativeToGround</altitudeMode><coordinates>None,None,0</coordinates></Point><description>&lt;map object at 0x04352190&gt;</description></Placemark><Placemark id="598261507651166208"><name>@MiiMiiPhiLLy</name><Point><extrude>1</extrude><altitudeMode>relativeToGround</altitudeMode><coordinates>-80.46296597,25.47549345,0</coordinates></Point><description>&lt;map object at 0x04352FD0&gt;</description></Placemark><Placemark id="598261282656096257"><name>Nazareth Ledezma</name><Point><extrude>1</extrude><altitudeMode>relativeToGround</altitudeMode><coordinates>-84.43173174,10.33603827,0</coordinates></Point><description>&lt;map object at 0x043521D0&gt;</description></Placemark><Placemark id="598261075415584768"><name>Shelby</name><Point><extrude>1</extrude><altitudeMode>relativeToGround</altitudeMode><coordinates>-79.96711,40.38646,0</coordinates></Point><description>&lt;map object at 0x04352190&gt;</description></Placemark><Placemark id="598260536594276352"><name>Ben Smith</name><Point><extrude>1</extrude><altitudeMode>relativeToGround</altitudeMode><coordinates>None,None,0</coordinates></Point><description>&lt;map object at 0x04352FD0&gt;</description></Placemark><Placemark id="598260526343303168"><name>Widiazisca Irbad</name><Point><extrude>1</extrude><altitudeMode>relativeToGround</altitudeMode><coordinates>None,None,0</coordinates></Point><description>&lt;map object at 0x043521D0&gt;</description></Placemark><Placemark id="598260366368493569"><name>Jason Aptekar</name><Point><extrude>1</extrude><altitudeMode>relativeToGround</altitudeMode><coordinates>None,None,0</coordinates></Point><description>&lt;map object at 0x04352190&gt;</description></Placemark><Placemark id="598259857997885441"><name>Catherine sullivan</name><Point><extrude>1</extrude><altitudeMode>relativeToGround</altitudeMode><coordinates>None,None,0</coordinates></Point><description>&lt;map object at 0x04352FD0&gt;</description></Placemark><Placemark id="598259560722345984"><name>Steve Borzoni</name><Point><extrude>1</extrude><altitudeMode>relativeToGround</altitudeMode><coordinates>None,None,0</coordinates></Point><description>&lt;map object at 0x043521D0&gt;</description></Placemark><Placemark id="598259555861176320"><name>Catherine sullivan</name><Point><extrude>1</extrude><altitudeMode>relativeToGround</altitudeMode><coordinates>None,None,0</coordinates></Point><description>&lt;map object at 0x04352190&gt;</description></Placemark><Placemark id="598259372536377346"><name>Marcus Thomas</name><Point><extrude>1</extrude><altitudeMode>relativeToGround</altitudeMode><coordinates>None,None,0</coordinates></Point><description>&lt;map object at 0x04352FD0&gt;</description></Placemark><Placemark id="598258776500805632"><name>J.P.</name><Point><extrude>1</extrude><altitudeMode>relativeToGround</altitudeMode><coordinates>-122.35786378,47.62079824,0</coordinates></Point><description>&lt;map object at 0x043521D0&gt;</description></Placemark><Placemark id="598258708435640320"><name>Colin Climie</name><Point><extrude>1</extrude><altitudeMode>relativeToGround</altitudeMode><coordinates>-79.30374205,43.66932285,0</coordinates></Point><description>&lt;map object at 0x04352190&gt;</description></Placemark><Placemark id="598258533717692416"><name>Juan Torrez</name><Point><extrude>1</extrude><altitudeMode>relativeToGround</altitudeMode><coordinates>None,None,0</coordinates></Point><description>&lt;map object at 0x04352FD0&gt;</description></Placemark><Placemark id="598258333322244100"><name>Chivito D Oro</name><Point><extrude>1</extrude><altitudeMode>relativeToGround</altitudeMode><coordinates>None,None,0</coordinates></Point><description>&lt;map object at 0x043521D0&gt;</description></Placemark><Placemark id="598258319917211648"><name>Chivito D Oro</name><Point><extrude>1</extrude><altitudeMode>relativeToGround</altitudeMode><coordinates>None,None,0</coordinates></Point><description>&lt;map object at 0x04352190&gt;</description></Placemark><Placemark id="598258003159060480"><name>Eleau S. Villaraiz</name><Point><extrude>1</extrude><altitudeMode>relativeToGround</altitudeMode><coordinates>None,None,0</coordinates></Point><description>&lt;map object at 0x04352FD0&gt;</description></Placemark><Placemark id="598257867418918912"><name>Gem</name><Point><extrude>1</extrude><altitudeMode>relativeToGround</altitudeMode><coordinates>None,None,0</coordinates></Point><description>&lt;map object at 0x043521D0&gt;</description></Placemark><Placemark id="598257609280454656"><name>Jeff Ponte</name><Point><extrude>1</extrude><altitudeMode>relativeToGround</altitudeMode><coordinates>-40.36031761,-3.67718092,0</coordinates></Point><description>&lt;map object at 0x04352190&gt;</description></Placemark><Placemark id="598257592591392768"><name>Pete Taylor=Personal</name><Point><extrude>1</extrude><altitudeMode>relativeToGround</altitudeMode><coordinates>-89.37875748,43.07449936,0</coordinates></Point><description>&lt;map object at 0x04352FD0&gt;</description></Placemark><Placemark id="598257543593521152"><name>T&#250;lio Vasconcelos</name><Point><extrude>1</extrude><altitudeMode>relativeToGround</altitudeMode><coordinates>-34.8737601,-8.06536405,0</coordinates></Point><description>&lt;map object at 0x04352370&gt;</description></Placemark><Placemark id="598257475129741312"><name>Kimberlee Davis</name><Point><extrude>1</extrude><altitudeMode>relativeToGround</altitudeMode><coordinates>None,None,0</coordinates></Point><description>&lt;map object at 0x04352390&gt;</description></Placemark><Placemark id="598257401423339520"><name>Ahmad sauwa</name><Point><extrude>1</extrude><altitudeMode>relativeToGround</altitudeMode><coordinates>None,None,0</coordinates></Point><description>&lt;map object at 0x04352150&gt;</description></Placemark><Placemark id="598257276269506560"><name>Foursquare</name><Point><extrude>1</extrude><altitudeMode>relativeToGround</altitudeMode><coordinates>None,None,0</coordinates></Point><description>&lt;map object at 0x04352370&gt;</description></Placemark><Placemark id="598257261539106817"><name>M&#931;LISS&#916; CL&#916;IR&#931;</name><Point><extrude>1</extrude><altitudeMode>relativeToGround</altitudeMode><coordinates>-80.23727417,26.31065062,0</coordinates></Point><description>&lt;map object at 0x04352390&gt;</description></Placemark><Placemark id="598256220873560064"><name>Eddie J. McCoven</name><Point><extrude>1</extrude><altitudeMode>relativeToGround</altitudeMode><coordinates>None,None,0</coordinates></Point><description>&lt;map object at 0x04352150&gt;</description></Placemark><Placemark id="598256134357647361"><name>Rik Wallin</name><Point><extrude>1</extrude><altitudeMode>relativeToGround</altitudeMode><coordinates>-96.82537288,32.82922763,0</coordinates></Point><description>&lt;map object at 0x04352370&gt;</description></Placemark><Placemark id="598255884326830080"><name>Berkay &#214;zcan</name><Point><extrude>1</extrude><altitudeMode>relativeToGround</altitudeMode><coordinates>None,None,0</coordinates></Point><description>&lt;map object at 0x04352390&gt;</description></Placemark><Placemark id="598255616168177664"><name>Romina Bond</name><Point><extrude>1</extrude><altitudeMode>relativeToGround</altitudeMode><coordinates>None,None,0</coordinates></Point><description>&lt;map object at 0x04352150&gt;</description></Placemark><Placemark id="598255409850351617"><name>A.J. O'Connell</name><Point><extrude>1</extrude><altitudeMode>relativeToGround</altitudeMode><coordinates>-122.384305,37.61926249,0</coordinates></Point><description>&lt;map object at 0x04352370&gt;</description></Placemark><Placemark id="598255386718838785"><name>Eddie J. McCoven</name><Point><extrude>1</extrude><altitudeMode>relativeToGround</altitudeMode><coordinates>None,None,0</coordinates></Point><description>&lt;map object at 0x04352390&gt;</description></Placemark><Placemark id="598254859742240769"><name>Naanad</name><Point><extrude>1</extrude><altitudeMode>relativeToGround</altitudeMode><coordinates>-92.45546977,42.51983886,0</coordinates></Point><description>&lt;map object at 0x04352150&gt;</description></Placemark><Placemark id="598254828234645504"><name>Faudzi Al-Junied</name><Point><extrude>1</extrude><altitudeMode>relativeToGround</altitudeMode><coordinates>115.84598064,-31.94822952,0</coordinates></Point><description>&lt;map object at 0x04352370&gt;</description></Placemark><Placemark id="598254688660824065"><name>Mike Connelly</name><Point><extrude>1</extrude><altitudeMode>relativeToGround</altitudeMode><coordinates>-78.85905325,43.89702652,0</coordinates></Point><description>&lt;map object at 0x04352390&gt;</description></Placemark><Placemark id="598254586009362432"><name>Nicholas Wood</name><Point><extrude>1</extrude><altitudeMode>relativeToGround</altitudeMode><coordinates>None,None,0</coordinates></Point><description>&lt;map object at 0x04352150&gt;</description></Placemark><Placemark id="598254559966973953"><name>Sherryl Wilson</name><Point><extrude>1</extrude><altitudeMode>relativeToGround</altitudeMode><coordinates>-84.4210595,39.31925314,0</coordinates></Point><description>&lt;map object at 0x04352370&gt;</description></Placemark><Placemark id="598254072685268992"><name>Miguel Lopez</name><Point><extrude>1</extrude><altitudeMode>relativeToGround</altitudeMode><coordinates>-80.3769754,25.67007986,0</coordinates></Point><description>&lt;map object at 0x04352390&gt;</description></Placemark><Placemark id="598253155596554240"><name>Marco Vinicio</name><Point><extrude>1</extrude><altitudeMode>relativeToGround</altitudeMode><coordinates>None,None,0</coordinates></Point><description>&lt;map object at 0x04352150&gt;</description></Placemark><Placemark id="598253144666169344"><name>matheus aciole</name><Point><extrude>1</extrude><altitudeMode>relativeToGround</altitudeMode><coordinates>-35.21210432,-5.82691002,0</coordinates></Point><description>&lt;map object at 0x04352370&gt;</description></Placemark><Placemark id="598252666729422848"><name>Yousif Khan </name><Point><extrude>1</extrude><altitudeMode>relativeToGround</altitudeMode><coordinates>39.17203749,21.55684572,0</coordinates></Point><description>&lt;map object at 0x04352390&gt;</description></Placemark><Placemark id="598252385291538433"><name>Patrcia Garc&#237;a</name><Point><extrude>1</extrude><altitudeMode>relativeToGround</altitudeMode><coordinates>None,None,0</coordinates></Point><description>&lt;map object at 0x04352150&gt;</description></Placemark><Placemark id="598252376823304194"><name>luiza i. cordeiro</name><Point><extrude>1</extrude><altitudeMode>relativeToGround</altitudeMode><coordinates>-49.64399815,-27.21070924,0</coordinates></Point><description>&lt;map object at 0x04352370&gt;</description></Placemark><Placemark id="598252374310944768"><name>Michael Ranola</name><Point><extrude>1</extrude><altitudeMode>relativeToGround</altitudeMode><coordinates>None,None,0</coordinates></Point><description>&lt;map object at 0x04352390&gt;</description></Placemark><Placemark id="598252110883479553"><name>Caio Quinzel </name><Point><extrude>1</extrude><altitudeMode>relativeToGround</altitudeMode><coordinates>-40.296199,-20.285473,0</coordinates></Point><description>&lt;map object at 0x04352150&gt;</description></Placemark><Placemark id="598251973977202688"><name>Gordon Voller</name><Point><extrude>1</extrude><altitudeMode>relativeToGround</altitudeMode><coordinates>-2.96285017,53.46172707,0</coordinates></Point><description>&lt;map object at 0x04352370&gt;</description></Placemark><Placemark id="598251912300011521"><name>Phillip Byers</name><Point><extrude>1</extrude><altitudeMode>relativeToGround</altitudeMode><coordinates>None,None,0</coordinates></Point><description>&lt;map object at 0x04352390&gt;</description></Placemark><Placemark id="598251856624807936"><name>Steve Borzoni</name><Point><extrude>1</extrude><altitudeMode>relativeToGround</altitudeMode><coordinates>None,None,0</coordinates></Point><description>&lt;map object at 0x04352150&gt;</description></Placemark><Placemark id="598251829462446080"><name>she.Maria</name><Point><extrude>1</extrude><altitudeMode>relativeToGround</altitudeMode><coordinates>None,None,0</coordinates></Point><description>&lt;map object at 0x04352370&gt;</description></Placemark><Placemark id="598251748139106305"><name>Vaughan Retweeter</name><Point><extrude>1</extrude><altitudeMode>relativeToGround</altitudeMode><coordinates>None,None,0</coordinates></Point><description>&lt;map object at 0x04352390&gt;</description></Placemark><Placemark id="598251537534615552"><name>MzAquarius</name><Point><extrude>1</extrude><altitudeMode>relativeToGround</altitudeMode><coordinates>None,None,0</coordinates></Point><description>&lt;map object at 0x04352150&gt;</description></Placemark><Placemark id="598251403514093568"><name>Corey Reichle</name><Point><extrude>1</extrude><altitudeMode>relativeToGround</altitudeMode><coordinates>None,None,0</coordinates></Point><description>&lt;map object at 0x04352370&gt;</description></Placemark><Placemark id="598251396060880896"><name>Geralyn Rowman</name><Point><extrude>1</extrude><altitudeMode>relativeToGround</altitudeMode><coordinates>None,None,0</coordinates></Point><description>&lt;map object at 0x04352390&gt;</description></Placemark><Placemark id="598251253546770432"><name>Wazdown</name><Point><extrude>1</extrude><altitudeMode>relativeToGround</altitudeMode><coordinates>None,None,0</coordinates></Point><description>&lt;map object at 0x04352150&gt;</description></Placemark><Placemark id="598251142385180672"><name>You Know Who</name><Point><extrude>1</extrude><altitudeMode>relativeToGround</altitudeMode><coordinates>None,None,0</coordinates></Point><description>&lt;map object at 0x04352370&gt;</description></Placemark><Placemark id="598250825002147840"><name>Scott Farnham</name><Point><extrude>1</extrude><altitudeMode>relativeToGround</altitudeMode><coordinates>None,None,0</coordinates></Point><description>&lt;map object at 0x04352390&gt;</description></Placemark><Placemark id="598250548975038464"><name>Miguel Lopez</name><Point><extrude>1</extrude><altitudeMode>relativeToGround</altitudeMode><coordinates>-80.32197706,25.71942985,0</coordinates></Point><description>&lt;map object at 0x04352150&gt;</description></Placemark><Placemark id="598250538447306754"><name>Dj Frankie..</name><Point><extrude>1</extrude><altitudeMode>relativeToGround</altitudeMode><coordinates>None,None,0</coordinates></Point><description>&lt;map object at 0x04352370&gt;</description></Placemark><Placemark id="598250344896954368"><name>crystal ward</name><Point><extrude>1</extrude><altitudeMode>relativeToGround</altitudeMode><coordinates>None,None,0</coordinates></Point><description>&lt;map object at 0x04352390&gt;</description></Placemark><Placemark id="598250272847167488"><name>Paulo Bianca</name><Point><extrude>1</extrude><altitudeMode>relativeToGround</altitudeMode><coordinates>-58.39261901,-34.58896536,0</coordinates></Point><description>&lt;map object at 0x04352150&gt;</description></Placemark><Placemark id="598250175904272385"><name>Allan Rocha </name><Point><extrude>1</extrude><altitudeMode>relativeToGround</altitudeMode><coordinates>None,None,0</coordinates></Point><description>&lt;map object at 0x04352370&gt;</description></Placemark><Placemark id="598249953299996673"><name>Abdulkarim Alolaywi</name><Point><extrude>1</extrude><altitudeMode>relativeToGround</altitudeMode><coordinates>-81.08021736,29.18064154,0</coordinates></Point><description>&lt;map object at 0x04352390&gt;</description></Placemark><Placemark id="598249836853534720"><name>Miguel Lopez</name><Point><extrude>1</extrude><altitudeMode>relativeToGround</altitudeMode><coordinates>-80.32002947,25.7534502,0</coordinates></Point><description>&lt;map object at 0x04352150&gt;</description></Placemark><Placemark id="598249710336483328"><name>Joseph Loh</name><Point><extrude>1</extrude><altitudeMode>relativeToGround</altitudeMode><coordinates>-122.90123046,49.25132569,0</coordinates></Point><description>&lt;map object at 0x04352370&gt;</description></Placemark><Placemark id="598249658184507392"><name>Shelby</name><Point><extrude>1</extrude><altitudeMode>relativeToGround</altitudeMode><coordinates>-79.95843967,40.39528198,0</coordinates></Point><description>&lt;map object at 0x04352390&gt;</description></Placemark><Placemark id="598249642149687296"><name>Lynn</name><Point><extrude>1</extrude><altitudeMode>relativeToGround</altitudeMode><coordinates>None,None,0</coordinates></Point><description>&lt;map object at 0x04352150&gt;</description></Placemark><Placemark id="598249283327000576"><name>A.J. O'Connell</name><Point><extrude>1</extrude><altitudeMode>relativeToGround</altitudeMode><coordinates>-122.38100052,37.61865062,0</coordinates></Point><description>&lt;map object at 0x04352370&gt;</description></Placemark><Placemark id="598249043190534144"><name>&#9992;Monica-&#9992;</name><Point><extrude>1</extrude><altitudeMode>relativeToGround</altitudeMode><coordinates>None,None,0</coordinates></Point><description>&lt;map object at 0x04352390&gt;</description></Placemark><Placemark id="598248989629280256"><name>John Yager</name><Point><extrude>1</extrude><altitudeMode>relativeToGround</altitudeMode><coordinates>None,None,0</coordinates></Point><description>&lt;map object at 0x04352150&gt;</description></Placemark><Placemark id="598248920683253760"><name>Andres Iglesias &#169;</name><Point><extrude>1</extrude><altitudeMode>relativeToGround</altitudeMode><coordinates>-96.84355706,32.98614094,0</coordinates></Point><description>&lt;map object at 0x04352370&gt;</description></Placemark><Placemark id="598248878043959296"><name>Andres Iglesias &#169;</name><Point><extrude>1</extrude><altitudeMode>relativeToGround</altitudeMode><coordinates>-96.84248842,32.98673192,0</coordinates></Point><description>&lt;map object at 0x04352390&gt;</description></Placemark><Placemark id="598248848671305729"><name>John Kirby</name><Point><extrude>1</extrude><altitudeMode>relativeToGround</altitudeMode><coordinates>-2.59683806,51.45248444,0</coordinates></Point><description>&lt;map object at 0x04352150&gt;</description></Placemark><Placemark id="598248836050644992"><name>Jake Mitchell</name><Point><extrude>1</extrude><altitudeMode>relativeToGround</altitudeMode><coordinates>-101.82645618,35.29530482,0</coordinates></Point><description>&lt;map object at 0x04352370&gt;</description></Placemark><Placemark id="598248764919435264"><name>M&#931;LISS&#916; CL&#916;IR&#931;</name><Point><extrude>1</extrude><altitudeMode>relativeToGround</altitudeMode><coordinates>-80.23582088,26.27213946,0</coordinates></Point><description>&lt;map object at 0x04352390&gt;</description></Placemark><Placemark id="598248739992707072"><name>c&#252;neyt s&#252;zer</name><Point><extrude>1</extrude><altitudeMode>relativeToGround</altitudeMode><coordinates>31.77154765,41.45372177,0</coordinates></Point><description>&lt;map object at 0x04352150&gt;</description></Placemark><Placemark id="598248638851248128"><name>Miguel Lopez</name><Point><extrude>1</extrude><altitudeMode>relativeToGround</altitudeMode><coordinates>-80.3219281,25.79684621,0</coordinates></Point><description>&lt;map object at 0x04352370&gt;</description></Placemark><Placemark id="598248088709505024"><name>BEasy</name><Point><extrude>1</extrude><altitudeMode>relativeToGround</altitudeMode><coordinates>-73.975303,40.738665,0</coordinates></Point><description>&lt;map object at 0x04352390&gt;</description></Placemark><Placemark id="598248065145950208"><name>Will Fowlkes</name><Point><extrude>1</extrude><altitudeMode>relativeToGround</altitudeMode><coordinates>-84.51288178,34.06661182,0</coordinates></Point><description>&lt;map object at 0x04352150&gt;</description></Placemark><Placemark id="598248057570856960"><name>Tap House Grill</name><Point><extrude>1</extrude><altitudeMode>relativeToGround</altitudeMode><coordinates>None,None,0</coordinates></Point><description>&lt;map object at 0x04352370&gt;</description></Placemark><Placemark id="598248019390136320"><name>Tap House Grill</name><Point><extrude>1</extrude><altitudeMode>relativeToGround</altitudeMode><coordinates>None,None,0</coordinates></Point><description>&lt;map object at 0x04352390&gt;</description></Placemark><Placemark id="598247302524960768"><name>Michael Anderson</name><Point><extrude>1</extrude><altitudeMode>relativeToGround</altitudeMode><coordinates>-34.93412335,-8.07479447,0</coordinates></Point><description>&lt;map object at 0x04352150&gt;</description></Placemark><Placemark id="598247141086240768"><name>Gordon Voller</name><Point><extrude>1</extrude><altitudeMode>relativeToGround</altitudeMode><coordinates>-2.97993422,53.40463272,0</coordinates></Point><description>&lt;map object at 0x04352370&gt;</description></Placemark><Placemark id="598247132370477058"><name>insidemyhead</name><Point><extrude>1</extrude><altitudeMode>relativeToGround</altitudeMode><coordinates>-79.39094067,43.64871502,0</coordinates></Point><description>&lt;map object at 0x04352390&gt;</description></Placemark><Placemark id="598247066062684161"><name>Steven A. Button</name><Point><extrude>1</extrude><altitudeMode>relativeToGround</altitudeMode><coordinates>None,None,0</coordinates></Point><description>&lt;map object at 0x04352150&gt;</description></Placemark><Placemark id="598247045061877761"><name>Mark Jackson-Brown</name><Point><extrude>1</extrude><altitudeMode>relativeToGround</altitudeMode><coordinates>-79.35703083,43.67628678,0</coordinates></Point><description>&lt;map object at 0x04352370&gt;</description></Placemark><Placemark id="598247031262547968"><name>$J-Money$</name><Point><extrude>1</extrude><altitudeMode>relativeToGround</altitudeMode><coordinates>None,None,0</coordinates></Point><description>&lt;map object at 0x04352390&gt;</description></Placemark><Placemark id="598246544681336833"><name>House of Coates</name><Point><extrude>1</extrude><altitudeMode>relativeToGround</altitudeMode><coordinates>None,None,0</coordinates></Point><description>&lt;map object at 0x04352150&gt;</description></Placemark><Placemark id="598246325709369344"><name>rachel</name><Point><extrude>1</extrude><altitudeMode>relativeToGround</altitudeMode><coordinates>None,None,0</coordinates></Point><description>&lt;map object at 0x04352370&gt;</description></Placemark><Placemark id="598245739752497152"><name>Supa Man</name><Point><extrude>1</extrude><altitudeMode>relativeToGround</altitudeMode><coordinates>None,None,0</coordinates></Point><description>&lt;map object at 0x04352390&gt;</description></Placemark><Placemark id="598245590770778112"><name>Shawn H</name><Point><extrude>1</extrude><altitudeMode>relativeToGround</altitudeMode><coordinates>-79.395913,43.64513441,0</coordinates></Point><description>&lt;map object at 0x04352150&gt;</description></Placemark><Placemark id="598245059964833792"><name>De_Swadarma</name><Point><extrude>1</extrude><altitudeMode>relativeToGround</altitudeMode><coordinates>None,None,0</coordinates></Point><description>&lt;map object at 0x04352370&gt;</description></Placemark><Placemark id="598244971838341120"><name>Carlitos GHzPC</name><Point><extrude>1</extrude><altitudeMode>relativeToGround</altitudeMode><coordinates>-96.92628053,19.5490775,0</coordinates></Point><description>&lt;map object at 0x04352390&gt;</description></Placemark><Placemark id="598244600168501248"><name>insidemyhead</name><Point><extrude>1</extrude><altitudeMode>relativeToGround</altitudeMode><coordinates>-79.39096212,43.64879265,0</coordinates></Point><description>&lt;map object at 0x04352150&gt;</description></Placemark><Placemark id="598244144138612736"><name>Morais</name><Point><extrude>1</extrude><altitudeMode>relativeToGround</altitudeMode><coordinates>-35.19968033,-5.83734851,0</coordinates></Point><description>&lt;map object at 0x04352370&gt;</description></Placemark><Placemark id="598243975976333313"><name>$J-Money$</name><Point><extrude>1</extrude><altitudeMode>relativeToGround</altitudeMode><coordinates>None,None,0</coordinates></Point><description>&lt;map object at 0x04352390&gt;</description></Placemark><Placemark id="598243769033588737"><name>Gordon Voller</name><Point><extrude>1</extrude><altitudeMode>relativeToGround</altitudeMode><coordinates>-2.97926055,53.40740418,0</coordinates></Point><description>&lt;map object at 0x04352150&gt;</description></Placemark><Placemark id="598243677740339200"><name>TOC AL MAR</name><Point><extrude>1</extrude><altitudeMode>relativeToGround</altitudeMode><coordinates>None,None,0</coordinates></Point><description>&lt;map object at 0x04352370&gt;</description></Placemark><Placemark id="598243492775763968"><name>Sage</name><Point><extrude>1</extrude><altitudeMode>relativeToGround</altitudeMode><coordinates>None,None,0</coordinates></Point><description>&lt;map object at 0x04352390&gt;</description></Placemark><Placemark id="598243411863412736"><name>Gordon Voller</name><Point><extrude>1</extrude><altitudeMode>relativeToGround</altitudeMode><coordinates>-2.97748804,53.40766437,0</coordinates></Point><description>&lt;map object at 0x04352150&gt;</description></Placemark><Placemark id="598243138860355584"><name>Se&#231;kin Everest</name><Point><extrude>1</extrude><altitudeMode>relativeToGround</altitudeMode><coordinates>29.02359969,41.10339504,0</coordinates></Point><description>&lt;map object at 0x04352370&gt;</description></Placemark><Placemark id="598243006370750464"><name>Reb Boyd</name><Point><extrude>1</extrude><altitudeMode>relativeToGround</altitudeMode><coordinates>None,None,0</coordinates></Point><description>&lt;map object at 0x04352390&gt;</description></Placemark><Placemark id="598242560520388611"><name>Newfanese</name><Point><extrude>1</extrude><altitudeMode>relativeToGround</altitudeMode><coordinates>None,None,0</coordinates></Point><description>&lt;map object at 0x04352150&gt;</description></Placemark><Placemark id="598242556737105920"><name>Steven A. Button</name><Point><extrude>1</extrude><altitudeMode>relativeToGround</altitudeMode><coordinates>None,None,0</coordinates></Point><description>&lt;map object at 0x04352370&gt;</description></Placemark><Placemark id="598242506699051008"><name>Newfanese</name><Point><extrude>1</extrude><altitudeMode>relativeToGround</altitudeMode><coordinates>None,None,0</coordinates></Point><description>&lt;map object at 0x04352390&gt;</description></Placemark><Placemark id="598242220630810624"><name>Sherryl Wilson</name><Point><extrude>1</extrude><altitudeMode>relativeToGround</altitudeMode><coordinates>-84.42332185,39.3201709,0</coordinates></Point><description>&lt;map object at 0x04352150&gt;</description></Placemark><Placemark id="598241986852839424"><name>Elisabeth T.</name><Point><extrude>1</extrude><altitudeMode>relativeToGround</altitudeMode><coordinates>None,None,0</coordinates></Point><description>&lt;map object at 0x04352370&gt;</description></Placemark><Placemark id="598241617192079361"><name>Esteban Arias</name><Point><extrude>1</extrude><altitudeMode>relativeToGround</altitudeMode><coordinates>None,None,0</coordinates></Point><description>&lt;map object at 0x04352390&gt;</description></Placemark><Placemark id="598241279399583744"><name>CasaBlack_Ah</name><Point><extrude>1</extrude><altitudeMode>relativeToGround</altitudeMode><coordinates>None,None,0</coordinates></Point><description>&lt;map object at 0x04352150&gt;</description></Placemark><Placemark id="598240869356011520"><name>Alicia Jarvis</name><Point><extrude>1</extrude><altitudeMode>relativeToGround</altitudeMode><coordinates>None,None,0</coordinates></Point><description>&lt;map object at 0x04352370&gt;</description></Placemark><Placemark id="598240543693479936"><name>tansu arslan</name><Point><extrude>1</extrude><altitudeMode>relativeToGround</altitudeMode><coordinates>27.875941,39.636827,0</coordinates></Point><description>&lt;map object at 0x04352390&gt;</description></Placemark><Placemark id="598240441197305856"><name>Aaron D. Vail</name><Point><extrude>1</extrude><altitudeMode>relativeToGround</altitudeMode><coordinates>-82.53158086,27.9495666,0</coordinates></Point><description>&lt;map object at 0x04352150&gt;</description></Placemark><Placemark id="598240303552851969"><name>Meow-tastic</name><Point><extrude>1</extrude><altitudeMode>relativeToGround</altitudeMode><coordinates>-73.97668116,40.74781324,0</coordinates></Point><description>&lt;map object at 0x04352370&gt;</description></Placemark><Placemark id="598240116725948418"><name>Catherine Schwab</name><Point><extrude>1</extrude><altitudeMode>relativeToGround</altitudeMode><coordinates>None,None,0</coordinates></Point><description>&lt;map object at 0x04352390&gt;</description></Placemark><Placemark id="598239438012022785"><name>J.P.</name><Point><extrude>1</extrude><altitudeMode>relativeToGround</altitudeMode><coordinates>-122.342591,47.610047,0</coordinates></Point><description>&lt;map object at 0x04352150&gt;</description></Placemark><Placemark id="598239327949291521"><name>Rafael A. Emuang</name><Point><extrude>1</extrude><altitudeMode>relativeToGround</altitudeMode><coordinates>101.58583403,3.04824874,0</coordinates></Point><description>&lt;map object at 0x04352370&gt;</description></Placemark><Placemark id="598239277915439104"><name>Zatchel RuedaAguirre</name><Point><extrude>1</extrude><altitudeMode>relativeToGround</altitudeMode><coordinates>-96.86488148,19.52166638,0</coordinates></Point><description>&lt;map object at 0x04352390&gt;</description></Placemark><Placemark id="598239064056299520"><name>Jacob Hamblin</name><Point><extrude>1</extrude><altitudeMode>relativeToGround</altitudeMode><coordinates>-81.210321,32.135839,0</coordinates></Point><description>&lt;map object at 0x04352150&gt;</description></Placemark><Placemark id="598238757104525312"><name>Pam </name><Point><extrude>1</extrude><altitudeMode>relativeToGround</altitudeMode><coordinates>None,None,0</coordinates></Point><description>&lt;map object at 0x04352370&gt;</description></Placemark><Placemark id="598238087509123072"><name>Afin</name><Point><extrude>1</extrude><altitudeMode>relativeToGround</altitudeMode><coordinates>107.5870414,-6.89919154,0</coordinates></Point><description>&lt;map object at 0x04352390&gt;</description></Placemark><Placemark id="598237996152975361"><name>Mike Connelly</name><Point><extrude>1</extrude><altitudeMode>relativeToGround</altitudeMode><coordinates>-78.85896333,43.89725935,0</coordinates></Point><description>&lt;map object at 0x04352150&gt;</description></Placemark><Placemark id="598237988200525824"><name>Tu&#287;ba Ekici</name><Point><extrude>1</extrude><altitudeMode>relativeToGround</altitudeMode><coordinates>29.03699398,41.00953603,0</coordinates></Point><description>&lt;map object at 0x04352370&gt;</description></Placemark><Placemark id="598237945401724929"><name>Terry Linde</name><Point><extrude>1</extrude><altitudeMode>relativeToGround</altitudeMode><coordinates>None,None,0</coordinates></Point><description>&lt;map object at 0x043521D0&gt;</description></Placemark><Placemark id="598237734306734081"><name>Terry Linde</name><Point><extrude>1</extrude><altitudeMode>relativeToGround</altitudeMode><coordinates>None,None,0</coordinates></Point><description>&lt;map object at 0x04352870&gt;</description></Placemark><Placemark id="598236924843839488"><name>Luz Marina</name><Point><extrude>1</extrude><altitudeMode>relativeToGround</altitudeMode><coordinates>None,None,0</coordinates></Point><description>&lt;map object at 0x043521D0&gt;</description></Placemark><Placemark id="598236560186875905"><name>&#1581;&#1587;&#1610;&#1606; &#1576;&#1575;&#1588;&#1575;</name><Point><extrude>1</extrude><altitudeMode>relativeToGround</altitudeMode><coordinates>None,None,0</coordinates></Point><description>&lt;map object at 0x04352870&gt;</description></Placemark><Placemark id="598236319878356992"><name>Samet K&#246;ken</name><Point><extrude>1</extrude><altitudeMode>relativeToGround</altitudeMode><coordinates>30.54517122,36.67731008,0</coordinates></Point><description>&lt;map object at 0x043521D0&gt;</description></Placemark><Placemark id="598236261460115458"><name>Johnny</name><Point><extrude>1</extrude><altitudeMode>relativeToGround</altitudeMode><coordinates>-97.03603506,32.89697519,0</coordinates></Point><description>&lt;map object at 0x04352FD0&gt;</description></Placemark><Placemark id="598236209152978945"><name>Alex!</name><Point><extrude>1</extrude><altitudeMode>relativeToGround</altitudeMode><coordinates>-121.41399621,38.60223438,0</coordinates></Point><description>&lt;map object at 0x04352870&gt;</description></Placemark><Placemark id="598236202492366849"><name>Dave Jones</name><Point><extrude>1</extrude><altitudeMode>relativeToGround</altitudeMode><coordinates>-118.38280538,34.09087516,0</coordinates></Point><description>&lt;map object at 0x043521D0&gt;</description></Placemark><Placemark id="598236132506267648"><name>John Olsen</name><Point><extrude>1</extrude><altitudeMode>relativeToGround</altitudeMode><coordinates>None,None,0</coordinates></Point><description>&lt;map object at 0x04352FD0&gt;</description></Placemark><Placemark id="598236075056824321"><name>Dilruba &#12467;&#12510;&#12531;&#12489;</name><Point><extrude>1</extrude><altitudeMode>relativeToGround</altitudeMode><coordinates>29.92639923,40.82027435,0</coordinates></Point><description>&lt;map object at 0x04352870&gt;</description></Placemark><Placemark id="598236050411155456"><name>John Olsen</name><Point><extrude>1</extrude><altitudeMode>relativeToGround</altitudeMode><coordinates>None,None,0</coordinates></Point><description>&lt;map object at 0x043521D0&gt;</description></Placemark><Placemark id="598235780834795520"><name>Camille Kaay</name><Point><extrude>1</extrude><altitudeMode>relativeToGround</altitudeMode><coordinates>-0.609588,44.783736,0</coordinates></Point><description>&lt;map object at 0x04352FD0&gt;</description></Placemark><Placemark id="598235311735480322"><name>Victoria Bogdanova</name><Point><extrude>1</extrude><altitudeMode>relativeToGround</altitudeMode><coordinates>-135.31748802,59.45415541,0</coordinates></Point><description>&lt;map object at 0x04352870&gt;</description></Placemark><Placemark id="598234557649965056"><name>pia pia oh pia pia&#8482;</name><Point><extrude>1</extrude><altitudeMode>relativeToGround</altitudeMode><coordinates>100.36525726,5.39566587,0</coordinates></Point><description>&lt;map object at 0x043521D0&gt;</description></Placemark><Placemark id="598234339583913984"><name>corrij</name><Point><extrude>1</extrude><altitudeMode>relativeToGround</altitudeMode><coordinates>None,None,0</coordinates></Point><description>&lt;map object at 0x04352FD0&gt;</description></Placemark><Placemark id="598234014756040704"><name>&#1571;&#1605;&#1600;&#1580;&#1600;&#1600;&#1583; &#1605;&#1600;&#1600;&#1581;&#1600;&#1600;&#1605;&#1600;&#1600;&#1583;</name><Point><extrude>1</extrude><altitudeMode>relativeToGround</altitudeMode><coordinates>31.276128,30.015374,0</coordinates></Point><description>&lt;map object at 0x04352870&gt;</description></Placemark><Placemark id="598233568251355136"><name>SignoraCristina</name><Point><extrude>1</extrude><altitudeMode>relativeToGround</altitudeMode><coordinates>None,None,0</coordinates></Point><description>&lt;map object at 0x043521D0&gt;</description></Placemark><Placemark id="598233469458710528"><name>brigh10</name><Point><extrude>1</extrude><altitudeMode>relativeToGround</altitudeMode><coordinates>-0.4883337,51.47149308,0</coordinates></Point><description>&lt;map object at 0x04352FD0&gt;</description></Placemark><Placemark id="598233403050172416"><name>Tom Cosgrove</name><Point><extrude>1</extrude><altitudeMode>relativeToGround</altitudeMode><coordinates>None,None,0</coordinates></Point><description>&lt;map object at 0x04352870&gt;</description></Placemark><Placemark id="598233388890349568"><name>Gordon Voller</name><Point><extrude>1</extrude><altitudeMode>relativeToGround</altitudeMode><coordinates>-2.73016388,53.45265142,0</coordinates></Point><description>&lt;map object at 0x043521D0&gt;</description></Placemark><Placemark id="598233145251606529"><name>Hisham Zakaria Hamad</name><Point><extrude>1</extrude><altitudeMode>relativeToGround</altitudeMode><coordinates>32.30705058,30.60231368,0</coordinates></Point><description>&lt;map object at 0x04352FD0&gt;</description></Placemark><Placemark id="598233041371279360"><name>Captian Howdy&#8482;</name><Point><extrude>1</extrude><altitudeMode>relativeToGround</altitudeMode><coordinates>-116.20574951,43.61685944,0</coordinates></Point><description>&lt;map object at 0x04352870&gt;</description></Placemark><Placemark id="598232464277012480"><name>Rah</name><Point><extrude>1</extrude><altitudeMode>relativeToGround</altitudeMode><coordinates>None,None,0</coordinates></Point><description>&lt;map object at 0x043521D0&gt;</description></Placemark><Placemark id="598232228120928258"><name>Andy Blevins</name><Point><extrude>1</extrude><altitudeMode>relativeToGround</altitudeMode><coordinates>None,None,0</coordinates></Point><description>&lt;map object at 0x04352FD0&gt;</description></Placemark><Placemark id="598231871114375171"><name>Josh Barilko</name><Point><extrude>1</extrude><altitudeMode>relativeToGround</altitudeMode><coordinates>-79.80137005,43.328342,0</coordinates></Point><description>&lt;map object at 0x04352870&gt;</description></Placemark><Placemark id="598231739899740160"><name>Wade Hurt</name><Point><extrude>1</extrude><altitudeMode>relativeToGround</altitudeMode><coordinates>None,None,0</coordinates></Point><description>&lt;map object at 0x043521D0&gt;</description></Placemark><Placemark id="598231571796201474"><name>J.P.</name><Point><extrude>1</extrude><altitudeMode>relativeToGround</altitudeMode><coordinates>-122.34171152,47.60971283,0</coordinates></Point><description>&lt;map object at 0x04352FD0&gt;</description></Placemark><Placemark id="598231327679389696"><name>Corinne Pulitzer</name><Point><extrude>1</extrude><altitudeMode>relativeToGround</altitudeMode><coordinates>-73.99817377,40.74056395,0</coordinates></Point><description>&lt;map object at 0x04352870&gt;</description></Placemark><Placemark id="598231327188656128"><name>&#27743;&#25144;&#32773;'s</name><Point><extrude>1</extrude><altitudeMode>relativeToGround</altitudeMode><coordinates>-73.98088805,40.76444469,0</coordinates></Point><description>&lt;map object at 0x043521D0&gt;</description></Placemark><Placemark id="598230878163197953"><name>Design2Brew</name><Point><extrude>1</extrude><altitudeMode>relativeToGround</altitudeMode><coordinates>None,None,0</coordinates></Point><description>&lt;map object at 0x04352FD0&gt;</description></Placemark><Placemark id="598230565981179904"><name>Maximiliano &#63723;Z10</name><Point><extrude>1</extrude><altitudeMode>relativeToGround</altitudeMode><coordinates>-58.52319271,-34.78955114,0</coordinates></Point><description>&lt;map object at 0x04352870&gt;</description></Placemark><Placemark id="598229940996190208"><name>La Chinita Poblana</name><Point><extrude>1</extrude><altitudeMode>relativeToGround</altitudeMode><coordinates>None,None,0</coordinates></Point><description>&lt;map object at 0x043521D0&gt;</description></Placemark><Placemark id="598229612808818688"><name>&#8482;H&#233;ctor Music&#8482;</name><Point><extrude>1</extrude><altitudeMode>relativeToGround</altitudeMode><coordinates>None,None,0</coordinates></Point><description>&lt;map object at 0x04352FD0&gt;</description></Placemark><Placemark id="598229599982645248"><name>Tanya</name><Point><extrude>1</extrude><altitudeMode>relativeToGround</altitudeMode><coordinates>-117.91539446,33.99036716,0</coordinates></Point><description>&lt;map object at 0x04352870&gt;</description></Placemark><Placemark id="598229518248206337"><name>TommyD</name><Point><extrude>1</extrude><altitudeMode>relativeToGround</altitudeMode><coordinates>8.24056187,50.08295701,0</coordinates></Point><description>&lt;map object at 0x043521D0&gt;</description></Placemark><Placemark id="598229493732474880"><name>TheLesbianSocialite</name><Point><extrude>1</extrude><altitudeMode>relativeToGround</altitudeMode><coordinates>None,None,0</coordinates></Point><description>&lt;map object at 0x04352FD0&gt;</description></Placemark><Placemark id="598229368381505536"><name>Maximiliano &#63723;Z10</name><Point><extrude>1</extrude><altitudeMode>relativeToGround</altitudeMode><coordinates>-58.53928149,-34.8140318,0</coordinates></Point><description>&lt;map object at 0x04352870&gt;</description></Placemark><Placemark id="598229309866803200"><name>Teddy T.</name><Point><extrude>1</extrude><altitudeMode>relativeToGround</altitudeMode><coordinates>24.19756523,56.3940145,0</coordinates></Point><description>&lt;map object at 0x043521D0&gt;</description></Placemark><Placemark id="598229163724648450"><name>seven_ten</name><Point><extrude>1</extrude><altitudeMode>relativeToGround</altitudeMode><coordinates>None,None,0</coordinates></Point><description>&lt;map object at 0x04352FD0&gt;</description></Placemark><Placemark id="598228935361634305"><name>Rah</name><Point><extrude>1</extrude><altitudeMode>relativeToGround</altitudeMode><coordinates>None,None,0</coordinates></Point><description>&lt;map object at 0x04352870&gt;</description></Placemark><Placemark id="598228910048948225"><name>TheLesbianSocialite</name><Point><extrude>1</extrude><altitudeMode>relativeToGround</altitudeMode><coordinates>None,None,0</coordinates></Point><description>&lt;map object at 0x043521D0&gt;</description></Placemark><Placemark id="598227868536152064"><name>Santos Godoy V&#233;jar</name><Point><extrude>1</extrude><altitudeMode>relativeToGround</altitudeMode><coordinates>None,None,0</coordinates></Point><description>&lt;map object at 0x04352FD0&gt;</description></Placemark><Placemark id="598227721811005440"><name>Doug Hawkins</name><Point><extrude>1</extrude><altitudeMode>relativeToGround</altitudeMode><coordinates>168.38587,-46.434655,0</coordinates></Point><description>&lt;map object at 0x04352870&gt;</description></Placemark><Placemark id="598227258218786817"><name>Steve Mann</name><Point><extrude>1</extrude><altitudeMode>relativeToGround</altitudeMode><coordinates>-122.93367644,46.14369046,0</coordinates></Point><description>&lt;map object at 0x043521D0&gt;</description></Placemark><Placemark id="598227251562455040"><name>Jake Mitchell</name><Point><extrude>1</extrude><altitudeMode>relativeToGround</altitudeMode><coordinates>-101.87781934,35.18390705,0</coordinates></Point><description>&lt;map object at 0x04352FD0&gt;</description></Placemark><Placemark id="598227148172845056"><name>wolverine </name><Point><extrude>1</extrude><altitudeMode>relativeToGround</altitudeMode><coordinates>40.20597941,37.9482572,0</coordinates></Point><description>&lt;map object at 0x04352870&gt;</description></Placemark><Placemark id="598226855179788288"><name>Veronicataylor</name><Point><extrude>1</extrude><altitudeMode>relativeToGround</altitudeMode><coordinates>None,None,0</coordinates></Point><description>&lt;map object at 0x043521D0&gt;</description></Placemark><Placemark id="598226813018509312"><name>Pregnancy Pillows</name><Point><extrude>1</extrude><altitudeMode>relativeToGround</altitudeMode><coordinates>None,None,0</coordinates></Point><description>&lt;map object at 0x04352FD0&gt;</description></Placemark><Placemark id="598226739798614016"><name>H.Batu K&#220;&#199;&#220;KS&#220;SL&#220;</name><Point><extrude>1</extrude><altitudeMode>relativeToGround</altitudeMode><coordinates>29.12788489,40.98188124,0</coordinates></Point><description>&lt;map object at 0x04352870&gt;</description></Placemark><Placemark id="598226345689280512"><name>b&#252;&#351;ra</name><Point><extrude>1</extrude><altitudeMode>relativeToGround</altitudeMode><coordinates>27.0875591,38.46723628,0</coordinates></Point><description>&lt;map object at 0x043521D0&gt;</description></Placemark><Placemark id="598225832021196800"><name>Andrea Hughes</name><Point><extrude>1</extrude><altitudeMode>relativeToGround</altitudeMode><coordinates>None,None,0</coordinates></Point><description>&lt;map object at 0x04352FD0&gt;</description></Placemark><Placemark id="598225403766013956"><name>ricksare</name><Point><extrude>1</extrude><altitudeMode>relativeToGround</altitudeMode><coordinates>None,None,0</coordinates></Point><description>&lt;map object at 0x04352870&gt;</description></Placemark><Placemark id="598225166544588800"><name>Snowflake07&#8482;&#10052;</name><Point><extrude>1</extrude><altitudeMode>relativeToGround</altitudeMode><coordinates>-79.07170223,43.10639946,0</coordinates></Point><description>&lt;map object at 0x043521D0&gt;</description></Placemark><Placemark id="598225075960205312"><name>Steph Higgins </name><Point><extrude>1</extrude><altitudeMode>relativeToGround</altitudeMode><coordinates>-80.46947139,43.44068905,0</coordinates></Point><description>&lt;map object at 0x04352FD0&gt;</description></Placemark><Placemark id="598224770522550272"><name>Jonathan Greenwald</name><Point><extrude>1</extrude><altitudeMode>relativeToGround</altitudeMode><coordinates>-79.39785004,43.70579417,0</coordinates></Point><description>&lt;map object at 0x04352870&gt;</description></Placemark><Placemark id="598224349435404290"><name>Mary Collin</name><Point><extrude>1</extrude><altitudeMode>relativeToGround</altitudeMode><coordinates>None,None,0</coordinates></Point><description>&lt;map object at 0x043521D0&gt;</description></Placemark><Placemark id="598224065829154817"><name>VI</name><Point><extrude>1</extrude><altitudeMode>relativeToGround</altitudeMode><coordinates>None,None,0</coordinates></Point><description>&lt;map object at 0x04352FD0&gt;</description></Placemark><Placemark id="598223972736626689"><name>Bryan &#63743; &#9889;&#65039;</name><Point><extrude>1</extrude><altitudeMode>relativeToGround</altitudeMode><coordinates>-73.53680607,41.0532076,0</coordinates></Point><description>&lt;map object at 0x04352870&gt;</description></Placemark><Placemark id="598223832047087617"><name>A.J. O'Connell</name><Point><extrude>1</extrude><altitudeMode>relativeToGround</altitudeMode><coordinates>-123.21424484,44.1198193,0</coordinates></Point><description>&lt;map object at 0x043521D0&gt;</description></Placemark><Placemark id="598223801307025409"><name>&#169;</name><Point><extrude>1</extrude><altitudeMode>relativeToGround</altitudeMode><coordinates>51.52736202,25.32488675,0</coordinates></Point><description>&lt;map object at 0x04352FD0&gt;</description></Placemark><Placemark id="598223216637804544"><name>Random Tatoo</name><Point><extrude>1</extrude><altitudeMode>relativeToGround</altitudeMode><coordinates>None,None,0</coordinates></Point><description>&lt;map object at 0x04352870&gt;</description></Placemark><Placemark id="598222777452208128"><name>Su</name><Point><extrude>1</extrude><altitudeMode>relativeToGround</altitudeMode><coordinates>None,None,0</coordinates></Point><description>&lt;map object at 0x043521D0&gt;</description></Placemark><Placemark id="598222771378900992"><name>insidemyhead</name><Point><extrude>1</extrude><altitudeMode>relativeToGround</altitudeMode><coordinates>-79.39031025,43.64817735,0</coordinates></Point><description>&lt;map object at 0x04352FD0&gt;</description></Placemark><Placemark id="598222769499705344"><name>GMS World</name><Point><extrude>1</extrude><altitudeMode>relativeToGround</altitudeMode><coordinates>None,None,0</coordinates></Point><description>&lt;map object at 0x04352870&gt;</description></Placemark><Placemark id="598222606668570625"><name>Varuni Jayasooriya</name><Point><extrude>1</extrude><altitudeMode>relativeToGround</altitudeMode><coordinates>144.85015162,-37.67052373,0</coordinates></Point><description>&lt;map object at 0x043521D0&gt;</description></Placemark><Placemark id="598222565983784961"><name>Su</name><Point><extrude>1</extrude><altitudeMode>relativeToGround</altitudeMode><coordinates>None,None,0</coordinates></Point><description>&lt;map object at 0x04352FD0&gt;</description></Placemark><Placemark id="598222417937506304"><name>Doug Hawkins</name><Point><extrude>1</extrude><altitudeMode>relativeToGround</altitudeMode><coordinates>168.362734,-46.415986,0</coordinates></Point><description>&lt;map object at 0x04352870&gt;</description></Placemark><Placemark id="598222407803994113"><name>Aaron Accetta</name><Point><extrude>1</extrude><altitudeMode>relativeToGround</altitudeMode><coordinates>None,None,0</coordinates></Point><description>&lt;map object at 0x043521D0&gt;</description></Placemark><Placemark id="598222348022632448"><name>Tracy McKibben</name><Point><extrude>1</extrude><altitudeMode>relativeToGround</altitudeMode><coordinates>None,None,0</coordinates></Point><description>&lt;map object at 0x04352FD0&gt;</description></Placemark><Placemark id="598222061123796992"><name>Su</name><Point><extrude>1</extrude><altitudeMode>relativeToGround</altitudeMode><coordinates>None,None,0</coordinates></Point><description>&lt;map object at 0x04352870&gt;</description></Placemark><Placemark id="598221797327265792"><name>Su</name><Point><extrude>1</extrude><altitudeMode>relativeToGround</altitudeMode><coordinates>None,None,0</coordinates></Point><description>&lt;map object at 0x043521D0&gt;</description></Placemark><Placemark id="598221701453852673"><name>Su</name><Point><extrude>1</extrude><altitudeMode>relativeToGround</altitudeMode><coordinates>None,None,0</coordinates></Point><description>&lt;map object at 0x04352FD0&gt;</description></Placemark><Placemark id="598221670890020864"><name>Ibra Onesiforojr</name><Point><extrude>1</extrude><altitudeMode>relativeToGround</altitudeMode><coordinates>36.68355862,-3.36199902,0</coordinates></Point><description>&lt;map object at 0x04352870&gt;</description></Placemark><Placemark id="598221515562311681"><name>Hector Montana</name><Point><extrude>1</extrude><altitudeMode>relativeToGround</altitudeMode><coordinates>-0.27102271,5.65435171,0</coordinates></Point><description>&lt;map object at 0x043521D0&gt;</description></Placemark><Placemark id="598221235722579972"><name>Su</name><Point><extrude>1</extrude><altitudeMode>relativeToGround</altitudeMode><coordinates>None,None,0</coordinates></Point><description>&lt;map object at 0x04352FD0&gt;</description></Placemark><Placemark id="598220290506756096"><name>Andrea Hughes</name><Point><extrude>1</extrude><altitudeMode>relativeToGround</altitudeMode><coordinates>None,None,0</coordinates></Point><description>&lt;map object at 0x04352870&gt;</description></Placemark><Placemark id="598220253882114048"><name>Harit Patel</name><Point><extrude>1</extrude><altitudeMode>relativeToGround</altitudeMode><coordinates>None,None,0</coordinates></Point><description>&lt;map object at 0x043521D0&gt;</description></Placemark><Placemark id="598219860401901568"><name>LeRoy Miller</name><Point><extrude>1</extrude><altitudeMode>relativeToGround</altitudeMode><coordinates>-84.36888069,39.43776241,0</coordinates></Point><description>&lt;map object at 0x04352FD0&gt;</description></Placemark><Placemark id="598219370012213248"><name>&#169;</name><Point><extrude>1</extrude><altitudeMode>relativeToGround</altitudeMode><coordinates>51.53008461,25.32874381,0</coordinates></Point><description>&lt;map object at 0x04352870&gt;</description></Placemark><Placemark id="598219199308267520"><name>mohammed alsayedomar</name><Point><extrude>1</extrude><altitudeMode>relativeToGround</altitudeMode><coordinates>48.015543,29.321251,0</coordinates></Point><description>&lt;map object at 0x043521D0&gt;</description></Placemark><Placemark id="598219196510642177"><name>Dylan Soo</name><Point><extrude>1</extrude><altitudeMode>relativeToGround</altitudeMode><coordinates>-90.02561496,35.04665124,0</coordinates></Point><description>&lt;map object at 0x04352FD0&gt;</description></Placemark><Placemark id="598219137836568576"><name>Jason Reyes</name><Point><extrude>1</extrude><altitudeMode>relativeToGround</altitudeMode><coordinates>-111.97859332,33.58387377,0</coordinates></Point><description>&lt;map object at 0x04352870&gt;</description></Placemark><Placemark id="598219105624260608"><name>Catherine Cleland</name><Point><extrude>1</extrude><altitudeMode>relativeToGround</altitudeMode><coordinates>None,None,0</coordinates></Point><description>&lt;map object at 0x043521D0&gt;</description></Placemark><Placemark id="598219070979350528"><name>&#169;</name><Point><extrude>1</extrude><altitudeMode>relativeToGround</altitudeMode><coordinates>51.53021336,25.32851107,0</coordinates></Point><description>&lt;map object at 0x04352FD0&gt;</description></Placemark><Placemark id="598218869510152193"><name>Pettyjohn's Boulder</name><Point><extrude>1</extrude><altitudeMode>relativeToGround</altitudeMode><coordinates>None,None,0</coordinates></Point><description>&lt;map object at 0x04352870&gt;</description></Placemark><Placemark id="598218774496546816"><name>pembe g&#246;zl&#252;k</name><Point><extrude>1</extrude><altitudeMode>relativeToGround</altitudeMode><coordinates>28.36372643,37.2106273,0</coordinates></Point><description>&lt;map object at 0x043521D0&gt;</description></Placemark><Placemark id="598218573220356096"><name>John Kirby</name><Point><extrude>1</extrude><altitudeMode>relativeToGround</altitudeMode><coordinates>-2.61791378,51.49431661,0</coordinates></Point><description>&lt;map object at 0x04352FD0&gt;</description></Placemark><Placemark id="598217813824778241"><name>Paul</name><Point><extrude>1</extrude><altitudeMode>relativeToGround</altitudeMode><coordinates>-0.075978,51.456384,0</coordinates></Point><description>&lt;map object at 0x04352870&gt;</description></Placemark><Placemark id="598217435683147776"><name>Paul</name><Point><extrude>1</extrude><altitudeMode>relativeToGround</altitudeMode><coordinates>-0.07523094,51.45976522,0</coordinates></Point><description>&lt;map object at 0x043521D0&gt;</description></Placemark><Placemark id="598217430444417024"><name>stacey wills</name><Point><extrude>1</extrude><altitudeMode>relativeToGround</altitudeMode><coordinates>-106.92174119,32.26963712,0</coordinates></Point><description>&lt;map object at 0x04352FD0&gt;</description></Placemark><Placemark id="598217413797289986"><name>MJH</name><Point><extrude>1</extrude><altitudeMode>relativeToGround</altitudeMode><coordinates>None,None,0</coordinates></Point><description>&lt;map object at 0x04352870&gt;</description></Placemark><Placemark id="598217410294980608"><name>A.J. O'Connell</name><Point><extrude>1</extrude><altitudeMode>relativeToGround</altitudeMode><coordinates>-123.21246386,44.11923394,0</coordinates></Point><description>&lt;map object at 0x043521D0&gt;</description></Placemark><Placemark id="598216013558259712"><name>hasan leblebici</name><Point><extrude>1</extrude><altitudeMode>relativeToGround</altitudeMode><coordinates>31.60158551,40.74047846,0</coordinates></Point><description>&lt;map object at 0x04352FD0&gt;</description></Placemark><Placemark id="598215804304367617"><name>V&#237;tor Pend&#227;o</name><Point><extrude>1</extrude><altitudeMode>relativeToGround</altitudeMode><coordinates>-16.93475657,32.63688384,0</coordinates></Point><description>&lt;map object at 0x04352870&gt;</description></Placemark><Placemark id="598215663564492800"><name>Timberline Adventure</name><Point><extrude>1</extrude><altitudeMode>relativeToGround</altitudeMode><coordinates>-90.434555,38.698988,0</coordinates></Point><description>&lt;map object at 0x043521D0&gt;</description></Placemark><Placemark id="598215477840707586"><name>Michael Anderson</name><Point><extrude>1</extrude><altitudeMode>relativeToGround</altitudeMode><coordinates>-34.92780996,-8.07142273,0</coordinates></Point><description>&lt;map object at 0x04352FD0&gt;</description></Placemark><Placemark id="598215399952482304"><name>Your Idol&#174;</name><Point><extrude>1</extrude><altitudeMode>relativeToGround</altitudeMode><coordinates>None,None,0</coordinates></Point><description>&lt;map object at 0x04352870&gt;</description></Placemark><Placemark id="598215000000483331"><name>Alfredo MB</name><Point><extrude>1</extrude><altitudeMode>relativeToGround</altitudeMode><coordinates>-84.83072484,9.97925693,0</coordinates></Point><description>&lt;map object at 0x043521D0&gt;</description></Placemark><Placemark id="598214270246084608"><name>Albert Nagy</name><Point><extrude>1</extrude><altitudeMode>relativeToGround</altitudeMode><coordinates>19.02453179,47.50993708,0</coordinates></Point><description>&lt;map object at 0x04352FD0&gt;</description></Placemark><Placemark id="598213675946770433"><name>A.J. O'Connell</name><Point><extrude>1</extrude><altitudeMode>relativeToGround</altitudeMode><coordinates>-123.14884186,44.07710356,0</coordinates></Point><description>&lt;map object at 0x04352870&gt;</description></Placemark><Placemark id="598213649744932864"><name>Aldi Arapi</name><Point><extrude>1</extrude><altitudeMode>relativeToGround</altitudeMode><coordinates>19.79604506,41.32112578,0</coordinates></Point><description>&lt;map object at 0x04352570&gt;</description></Placemark><Placemark id="598213396518064129"><name>Captian Howdy&#8482;</name><Point><extrude>1</extrude><altitudeMode>relativeToGround</altitudeMode><coordinates>-116.20269701,43.6165845,0</coordinates></Point><description>&lt;map object at 0x04352830&gt;</description></Placemark><Placemark id="598213234655625216"><name>Connor Thomas Naylor</name><Point><extrude>1</extrude><altitudeMode>relativeToGround</altitudeMode><coordinates>None,None,0</coordinates></Point><description>&lt;map object at 0x043522B0&gt;</description></Placemark><Placemark id="598212893843271680"><name>Burak &#246;z</name><Point><extrude>1</extrude><altitudeMode>relativeToGround</altitudeMode><coordinates>None,None,0</coordinates></Point><description>&lt;map object at 0x04352570&gt;</description></Placemark><Placemark id="598212893482582016"><name>sp asam</name><Point><extrude>1</extrude><altitudeMode>relativeToGround</altitudeMode><coordinates>22.58756748,40.23915143,0</coordinates></Point><description>&lt;map object at 0x04352830&gt;</description></Placemark><Placemark id="598212494776217602"><name>Umut &#220;ner</name><Point><extrude>1</extrude><altitudeMode>relativeToGround</altitudeMode><coordinates>29.9783301,40.14466381,0</coordinates></Point><description>&lt;map object at 0x043522B0&gt;</description></Placemark><Placemark id="598212346637496320"><name>62.</name><Point><extrude>1</extrude><altitudeMode>relativeToGround</altitudeMode><coordinates>None,None,0</coordinates></Point><description>&lt;map object at 0x04352570&gt;</description></Placemark><Placemark id="598210924034547712"><name>&#231;a&#287;lar horzum</name><Point><extrude>1</extrude><altitudeMode>relativeToGround</altitudeMode><coordinates>29.40051853,38.67482495,0</coordinates></Point><description>&lt;map object at 0x04352830&gt;</description></Placemark><Placemark id="598210892623380483"><name>Joshua Nagenda</name><Point><extrude>1</extrude><altitudeMode>relativeToGround</altitudeMode><coordinates>None,None,0</coordinates></Point><description>&lt;map object at 0x043522B0&gt;</description></Placemark><Placemark id="598210839049535488"><name>Ronan Vance</name><Point><extrude>1</extrude><altitudeMode>relativeToGround</altitudeMode><coordinates>-118.24049592,34.03904913,0</coordinates></Point><description>&lt;map object at 0x04352570&gt;</description></Placemark><Placemark id="598210553732005888"><name>eraykas&#305;kc&#305;.</name><Point><extrude>1</extrude><altitudeMode>relativeToGround</altitudeMode><coordinates>29.12929903,40.9194627,0</coordinates></Point><description>&lt;map object at 0x04352830&gt;</description></Placemark><Placemark id="598210296998666240"><name>nilton</name><Point><extrude>1</extrude><altitudeMode>relativeToGround</altitudeMode><coordinates>-51.25843048,-29.19158185,0</coordinates></Point><description>&lt;map object at 0x043522B0&gt;</description></Placemark><Placemark id="598210237003386880"><name>&#169;</name><Point><extrude>1</extrude><altitudeMode>relativeToGround</altitudeMode><coordinates>51.53220888,25.28657857,0</coordinates></Point><description>&lt;map object at 0x04352570&gt;</description></Placemark><Placemark id="598210191381897218"><name>&#169;</name><Point><extrude>1</extrude><altitudeMode>relativeToGround</altitudeMode><coordinates>51.53290629,25.28828898,0</coordinates></Point><description>&lt;map object at 0x04352830&gt;</description></Placemark><Placemark id="598210149556289536"><name>Femme de Julie &#10084;</name><Point><extrude>1</extrude><altitudeMode>relativeToGround</altitudeMode><coordinates>2.19512996,48.88433616,0</coordinates></Point><description>&lt;map object at 0x043522B0&gt;</description></Placemark><Placemark id="598210074381811712"><name>Azrin HMA</name><Point><extrude>1</extrude><altitudeMode>relativeToGround</altitudeMode><coordinates>114.88987019,4.85681331,0</coordinates></Point><description>&lt;map object at 0x04352570&gt;</description></Placemark><Placemark id="598209757049135104"><name>sezjeuric</name><Point><extrude>1</extrude><altitudeMode>relativeToGround</altitudeMode><coordinates>-113.52528,53.546558,0</coordinates></Point><description>&lt;map object at 0x04352830&gt;</description></Placemark><Placemark id="598209639138865152"><name>Greg Frye</name><Point><extrude>1</extrude><altitudeMode>relativeToGround</altitudeMode><coordinates>-82.461355,27.43269,0</coordinates></Point><description>&lt;map object at 0x043522B0&gt;</description></Placemark><Placemark id="598209630808977408"><name>JT Koffenberger</name><Point><extrude>1</extrude><altitudeMode>relativeToGround</altitudeMode><coordinates>None,None,0</coordinates></Point><description>&lt;map object at 0x04352570&gt;</description></Placemark><Placemark id="598209507009892352"><name>J.P.</name><Point><extrude>1</extrude><altitudeMode>relativeToGround</altitudeMode><coordinates>-122.34138966,47.60868029,0</coordinates></Point><description>&lt;map object at 0x04352830&gt;</description></Placemark><Placemark id="598209459949821952"><name>Ingrid Otero-Smart</name><Point><extrude>1</extrude><altitudeMode>relativeToGround</altitudeMode><coordinates>None,None,0</coordinates></Point><description>&lt;map object at 0x043522B0&gt;</description></Placemark><Placemark id="598208981165842433"><name>&#1605;&#1581;&#1605;&#1583; &#1575;&#1604;&#1605;&#1604;&#1581;&#1605;</name><Point><extrude>1</extrude><altitudeMode>relativeToGround</altitudeMode><coordinates>None,None,0</coordinates></Point><description>&lt;map object at 0x04352570&gt;</description></Placemark><Placemark id="598208926258167809"><name>Jose S</name><Point><extrude>1</extrude><altitudeMode>relativeToGround</altitudeMode><coordinates>None,None,0</coordinates></Point><description>&lt;map object at 0x04352830&gt;</description></Placemark><Placemark id="598207932099076096"><name>&#1582;&#1604;&#1608;&#1583; &#1593;&#1608;&#1604;&#1602;&#1610;</name><Point><extrude>1</extrude><altitudeMode>relativeToGround</altitudeMode><coordinates>None,None,0</coordinates></Point><description>&lt;map object at 0x043522B0&gt;</description></Placemark><Placemark id="598207820597731328"><name>Joris Van Pollaert</name><Point><extrude>1</extrude><altitudeMode>relativeToGround</altitudeMode><coordinates>None,None,0</coordinates></Point><description>&lt;map object at 0x04352570&gt;</description></Placemark><Placemark id="598207769305608192"><name>NoorMobarak</name><Point><extrude>1</extrude><altitudeMode>relativeToGround</altitudeMode><coordinates>-122.68458366,45.510071,0</coordinates></Point><description>&lt;map object at 0x04352830&gt;</description></Placemark><Placemark id="598207620969865218"><name>David </name><Point><extrude>1</extrude><altitudeMode>relativeToGround</altitudeMode><coordinates>None,None,0</coordinates></Point><description>&lt;map object at 0x043522B0&gt;</description></Placemark><Placemark id="598207494847082498"><name>shovan sadhukhan</name><Point><extrude>1</extrude><altitudeMode>relativeToGround</altitudeMode><coordinates>88.36179256,22.50157485,0</coordinates></Point><description>&lt;map object at 0x04352570&gt;</description></Placemark><Placemark id="598206949092646912"><name>Shanny</name><Point><extrude>1</extrude><altitudeMode>relativeToGround</altitudeMode><coordinates>107.63542497,-6.93282854,0</coordinates></Point><description>&lt;map object at 0x04352830&gt;</description></Placemark><Placemark id="598206910526070785"><name>Bryan &#63743; &#9889;&#65039;</name><Point><extrude>1</extrude><altitudeMode>relativeToGround</altitudeMode><coordinates>-73.53592649,41.05869234,0</coordinates></Point><description>&lt;map object at 0x043522B0&gt;</description></Placemark><Placemark id="598206844960649216"><name>Asma&#9772;(nyctophilia)</name><Point><extrude>1</extrude><altitudeMode>relativeToGround</altitudeMode><coordinates>None,None,0</coordinates></Point><description>&lt;map object at 0x04352570&gt;</description></Placemark><Placemark id="598206809120362497"><name>Newfanese</name><Point><extrude>1</extrude><altitudeMode>relativeToGround</altitudeMode><coordinates>None,None,0</coordinates></Point><description>&lt;map object at 0x04352830&gt;</description></Placemark><Placemark id="598206635824283649"><name>Lucas Buck</name><Point><extrude>1</extrude><altitudeMode>relativeToGround</altitudeMode><coordinates>None,None,0</coordinates></Point><description>&lt;map object at 0x043522B0&gt;</description></Placemark><Placemark id="598206612940189696"><name>&#246;zge</name><Point><extrude>1</extrude><altitudeMode>relativeToGround</altitudeMode><coordinates>27.09337376,38.45924934,0</coordinates></Point><description>&lt;map object at 0x04352570&gt;</description></Placemark><Placemark id="598206606585769984"><name>Johnny</name><Point><extrude>1</extrude><altitudeMode>relativeToGround</altitudeMode><coordinates>-97.04086304,32.89803818,0</coordinates></Point><description>&lt;map object at 0x04352830&gt;</description></Placemark><Placemark id="598206585354199040"><name>paul nimmo</name><Point><extrude>1</extrude><altitudeMode>relativeToGround</altitudeMode><coordinates>-80.2377078,43.14832858,0</coordinates></Point><description>&lt;map object at 0x043522B0&gt;</description></Placemark><Placemark id="598206527749623808"><name>$J-Money$</name><Point><extrude>1</extrude><altitudeMode>relativeToGround</altitudeMode><coordinates>None,None,0</coordinates></Point><description>&lt;map object at 0x04352570&gt;</description></Placemark><Placemark id="598206376624726016"><name>Michael</name><Point><extrude>1</extrude><altitudeMode>relativeToGround</altitudeMode><coordinates>None,None,0</coordinates></Point><description>&lt;map object at 0x04352830&gt;</description></Placemark><Placemark id="598206102900211713"><name>Adina Katz</name><Point><extrude>1</extrude><altitudeMode>relativeToGround</altitudeMode><coordinates>None,None,0</coordinates></Point><description>&lt;map object at 0x043522B0&gt;</description></Placemark><Placemark id="598205281538056192"><name>whatever</name><Point><extrude>1</extrude><altitudeMode>relativeToGround</altitudeMode><coordinates>None,None,0</coordinates></Point><description>&lt;map object at 0x04352570&gt;</description></Placemark><Placemark id="598205200046882816"><name>Slim Joe</name><Point><extrude>1</extrude><altitudeMode>relativeToGround</altitudeMode><coordinates>None,None,0</coordinates></Point><description>&lt;map object at 0x04352830&gt;</description></Placemark><Placemark id="598204831984156672"><name>Angelia KY</name><Point><extrude>1</extrude><altitudeMode>relativeToGround</altitudeMode><coordinates>None,None,0</coordinates></Point><description>&lt;map object at 0x043522B0&gt;</description></Placemark><Placemark id="598204826359595008"><name>Hande Kaplan</name><Point><extrude>1</extrude><altitudeMode>relativeToGround</altitudeMode><coordinates>None,None,0</coordinates></Point><description>&lt;map object at 0x04352570&gt;</description></Placemark><Placemark id="598204765118537728"><name>Angelia KY</name><Point><extrude>1</extrude><altitudeMode>relativeToGround</altitudeMode><coordinates>None,None,0</coordinates></Point><description>&lt;map object at 0x04352830&gt;</description></Placemark><Placemark id="598204525489594370"><name>danniB</name><Point><extrude>1</extrude><altitudeMode>relativeToGround</altitudeMode><coordinates>-1.1376214,51.9603726,0</coordinates></Point><description>&lt;map object at 0x043522B0&gt;</description></Placemark><Placemark id="598204505273016320"><name>Angelia KY</name><Point><extrude>1</extrude><altitudeMode>relativeToGround</altitudeMode><coordinates>None,None,0</coordinates></Point><description>&lt;map object at 0x04352570&gt;</description></Placemark><Placemark id="598204500046966785"><name>danniB</name><Point><extrude>1</extrude><altitudeMode>relativeToGround</altitudeMode><coordinates>-1.1376214,51.9603726,0</coordinates></Point><description>&lt;map object at 0x04352830&gt;</description></Placemark><Placemark id="598203316867325952"><name>Nisha</name><Point><extrude>1</extrude><altitudeMode>relativeToGround</altitudeMode><coordinates>None,None,0</coordinates></Point><description>&lt;map object at 0x043522B0&gt;</description></Placemark><Placemark id="598203071596998656"><name>Newfanese</name><Point><extrude>1</extrude><altitudeMode>relativeToGround</altitudeMode><coordinates>None,None,0</coordinates></Point><description>&lt;map object at 0x04352570&gt;</description></Placemark><Placemark id="598203044719898624"><name>Newfanese</name><Point><extrude>1</extrude><altitudeMode>relativeToGround</altitudeMode><coordinates>None,None,0</coordinates></Point><description>&lt;map object at 0x04352830&gt;</description></Placemark><Placemark id="598202956115247104"><name>Newfanese</name><Point><extrude>1</extrude><altitudeMode>relativeToGround</altitudeMode><coordinates>None,None,0</coordinates></Point><description>&lt;map object at 0x043522B0&gt;</description></Placemark><Placemark id="598202906232410112"><name>Claire Gendel</name><Point><extrude>1</extrude><altitudeMode>relativeToGround</altitudeMode><coordinates>-118.456084,34.033454,0</coordinates></Point><description>&lt;map object at 0x04352570&gt;</description></Placemark><Placemark id="598202792965230592"><name>JT Koffenberger</name><Point><extrude>1</extrude><altitudeMode>relativeToGround</altitudeMode><coordinates>None,None,0</coordinates></Point><description>&lt;map object at 0x04352830&gt;</description></Placemark><Placemark id="598202792608702465"><name>JT Koffenberger</name><Point><extrude>1</extrude><altitudeMode>relativeToGround</altitudeMode><coordinates>None,None,0</coordinates></Point><description>&lt;map object at 0x043522B0&gt;</description></Placemark><Placemark id="598202792361201664"><name>JT Koffenberger</name><Point><extrude>1</extrude><altitudeMode>relativeToGround</altitudeMode><coordinates>None,None,0</coordinates></Point><description>&lt;map object at 0x04352570&gt;</description></Placemark><Placemark id="598202735109009408"><name>Steve Hobbs</name><Point><extrude>1</extrude><altitudeMode>relativeToGround</altitudeMode><coordinates>None,None,0</coordinates></Point><description>&lt;map object at 0x04352830&gt;</description></Placemark><Placemark id="598202364202483712"><name>Rico Sanchez Jr.</name><Point><extrude>1</extrude><altitudeMode>relativeToGround</altitudeMode><coordinates>-77.38089336,34.77077298,0</coordinates></Point><description>&lt;map object at 0x043522B0&gt;</description></Placemark><Placemark id="598202316475498496"><name>BitkiCell</name><Point><extrude>1</extrude><altitudeMode>relativeToGround</altitudeMode><coordinates>29.09835243,40.9938317,0</coordinates></Point><description>&lt;map object at 0x04352570&gt;</description></Placemark><Placemark id="598202176075333633"><name>Misty Bradford</name><Point><extrude>1</extrude><altitudeMode>relativeToGround</altitudeMode><coordinates>-122.465949,37.714384,0</coordinates></Point><description>&lt;map object at 0x04352830&gt;</description></Placemark><Placemark id="598202043648606209"><name>Dirk Reimer</name><Point><extrude>1</extrude><altitudeMode>relativeToGround</altitudeMode><coordinates>9.91816017,53.57062377,0</coordinates></Point><description>&lt;map object at 0x043522B0&gt;</description></Placemark><Placemark id="598201715792465920"><name>Ali</name><Point><extrude>1</extrude><altitudeMode>relativeToGround</altitudeMode><coordinates>None,None,0</coordinates></Point><description>&lt;map object at 0x04352570&gt;</description></Placemark><Placemark id="598201636549480448"><name>Gag Halfrunt</name><Point><extrude>1</extrude><altitudeMode>relativeToGround</altitudeMode><coordinates>-0.07803487,52.38101506,0</coordinates></Point><description>&lt;map object at 0x04352830&gt;</description></Placemark><Placemark id="598201218507350018"><name>&#1581;&#1587;&#1610;&#1606; &#1576;&#1575;&#1588;&#1575;</name><Point><extrude>1</extrude><altitudeMode>relativeToGround</altitudeMode><coordinates>None,None,0</coordinates></Point><description>&lt;map object at 0x043522B0&gt;</description></Placemark><Placemark id="598200797470523392"><name>Sherifa Alomran</name><Point><extrude>1</extrude><altitudeMode>relativeToGround</altitudeMode><coordinates>48.06644184,29.29097685,0</coordinates></Point><description>&lt;map object at 0x04352570&gt;</description></Placemark><Placemark id="598200276152098818"><name>Greg Frye</name><Point><extrude>1</extrude><altitudeMode>relativeToGround</altitudeMode><coordinates>-82.5086794,27.44608462,0</coordinates></Point><description>&lt;map object at 0x04352830&gt;</description></Placemark><Placemark id="598199462855606272"><name>trevor boller</name><Point><extrude>1</extrude><altitudeMode>relativeToGround</altitudeMode><coordinates>-113.27358,53.566596,0</coordinates></Point><description>&lt;map object at 0x043522B0&gt;</description></Placemark><Placemark id="598199303853776896"><name>Catherine sullivan</name><Point><extrude>1</extrude><altitudeMode>relativeToGround</altitudeMode><coordinates>None,None,0</coordinates></Point><description>&lt;map object at 0x04352570&gt;</description></Placemark><Placemark id="598199148148580352"><name>Fatih S&#305;ryol  </name><Point><extrude>1</extrude><altitudeMode>relativeToGround</altitudeMode><coordinates>29.09561161,37.74386614,0</coordinates></Point><description>&lt;map object at 0x04352830&gt;</description></Placemark><Placemark id="598199140661747712"><name>Amina</name><Point><extrude>1</extrude><altitudeMode>relativeToGround</altitudeMode><coordinates>51.379321,51.209946,0</coordinates></Point><description>&lt;map object at 0x043522B0&gt;</description></Placemark><Placemark id="598198761547046912"><name>A.J. O'Connell</name><Point><extrude>1</extrude><altitudeMode>relativeToGround</altitudeMode><coordinates>-123.16892624,44.04879433,0</coordinates></Point><description>&lt;map object at 0x04352570&gt;</description></Placemark><Placemark id="598198341458067457"><name>robotmansa</name><Point><extrude>1</extrude><altitudeMode>relativeToGround</altitudeMode><coordinates>None,None,0</coordinates></Point><description>&lt;map object at 0x04352830&gt;</description></Placemark><Placemark id="598198176718401537"><name>Polat O&#286;UZ</name><Point><extrude>1</extrude><altitudeMode>relativeToGround</altitudeMode><coordinates>29.08671849,37.76418577,0</coordinates></Point><description>&lt;map object at 0x043522B0&gt;</description></Placemark><Placemark id="598198036037263360"><name>Christopher Floss</name><Point><extrude>1</extrude><altitudeMode>relativeToGround</altitudeMode><coordinates>None,None,0</coordinates></Point><description>&lt;map object at 0x04352570&gt;</description></Placemark><Placemark id="598197919108456449"><name>Rodrigo Roch</name><Point><extrude>1</extrude><altitudeMode>relativeToGround</altitudeMode><coordinates>-3.65044003,40.40616356,0</coordinates></Point><description>&lt;map object at 0x04352830&gt;</description></Placemark><Placemark id="598197617542201344"><name>EK</name><Point><extrude>1</extrude><altitudeMode>relativeToGround</altitudeMode><coordinates>None,None,0</coordinates></Point><description>&lt;map object at 0x043522B0&gt;</description></Placemark><Placemark id="598197364789288960"><name>Ryan</name><Point><extrude>1</extrude><altitudeMode>relativeToGround</altitudeMode><coordinates>-77.69396067,37.51353852,0</coordinates></Point><description>&lt;map object at 0x04352570&gt;</description></Placemark><Placemark id="598196943790145536"><name>Tanya </name><Point><extrude>1</extrude><altitudeMode>relativeToGround</altitudeMode><coordinates>None,None,0</coordinates></Point><description>&lt;map object at 0x04352830&gt;</description></Placemark><Placemark id="598196727133433856"><name>George T</name><Point><extrude>1</extrude><altitudeMode>relativeToGround</altitudeMode><coordinates>45.44351196,40.93788147,0</coordinates></Point><description>&lt;map object at 0x043522B0&gt;</description></Placemark><Placemark id="598196492415926272"><name>Jawaad Jabaar</name><Point><extrude>1</extrude><altitudeMode>relativeToGround</altitudeMode><coordinates>19.01061683,-32.59174294,0</coordinates></Point><description>&lt;map object at 0x04352570&gt;</description></Placemark><Placemark id="598196431946719233"><name>Catherine sullivan</name><Point><extrude>1</extrude><altitudeMode>relativeToGround</altitudeMode><coordinates>None,None,0</coordinates></Point><description>&lt;map object at 0x04352830&gt;</description></Placemark><Placemark id="598196359313887233"><name>Nikhil Sanjay Joshi</name><Point><extrude>1</extrude><altitudeMode>relativeToGround</altitudeMode><coordinates>81.02610261,26.85306213,0</coordinates></Point><description>&lt;map object at 0x043522B0&gt;</description></Placemark><Placemark id="598196324341817344"><name>Jawaad Jabaar</name><Point><extrude>1</extrude><altitudeMode>relativeToGround</altitudeMode><coordinates>18.9524431,-32.63940214,0</coordinates></Point><description>&lt;map object at 0x04352570&gt;</description></Placemark><Placemark id="598196290938400769"><name>E R D E M B A S </name><Point><extrude>1</extrude><altitudeMode>relativeToGround</altitudeMode><coordinates>29.3023031,40.94185716,0</coordinates></Point><description>&lt;map object at 0x04352830&gt;</description></Placemark><Placemark id="598196240988372993"><name>FayzahSaleh</name><Point><extrude>1</extrude><altitudeMode>relativeToGround</altitudeMode><coordinates>None,None,0</coordinates></Point><description>&lt;map object at 0x043522B0&gt;</description></Placemark><Placemark id="598196163683196929"><name>Shan Fox</name><Point><extrude>1</extrude><altitudeMode>relativeToGround</altitudeMode><coordinates>None,None,0</coordinates></Point><description>&lt;map object at 0x04352570&gt;</description></Placemark><Placemark id="598196116312727552"><name>Amir Sharif</name><Point><extrude>1</extrude><altitudeMode>relativeToGround</altitudeMode><coordinates>None,None,0</coordinates></Point><description>&lt;map object at 0x04352830&gt;</description></Placemark>