<kml xmlns:atom="http://www.w3.org/2005/Atom" xmlns:gx="http://www.google.com/kml/ext/2.2" xmlns="http://www.opengis.net/kml/2.2"><Document><Folder id="tweets"><name>Tweets</name><Placemark id="577619361562796032"><name>CitizensConnect</name><Point><extrude>1</extrude><altitudeMode>relativeToGround</altitudeMode><coordinates>-71.03825497,42.33377765,0</coordinates></Point><description>&lt;map object at 0x04361B70&gt;</description></Placemark><Placemark id="577619120193056768"><name>Topix Boston News</name><Point><extrude>1</extrude><altitudeMode>relativeToGround</altitudeMode><coordinates>-71.0603,42.3583,0</coordinates></Point><description>&lt;map object at 0x04361BB0&gt;</description></Placemark><Placemark id="577613564724318208"><name>love letter to rome</name><Point><extrude>1</extrude><altitudeMode>relativeToGround</altitudeMode><coordinates>-71.01883912,42.36975481,0</coordinates></Point><description>&lt;map object at 0x04361B90&gt;</description></Placemark><Placemark id="577612020427669506"><name>Betty Widerski</name><Point><extrude>1</extrude><altitudeMode>relativeToGround</altitudeMode><coordinates>-71.1369079,42.41174319,0</coordinates></Point><description>&lt;map object at 0x04361B70&gt;</description></Placemark><Placemark id="577611225397379072"><name>CitizensConnect</name><Point><extrude>1</extrude><altitudeMode>relativeToGround</altitudeMode><coordinates>-71.03348152,42.37354417,0</coordinates></Point><description>&lt;map object at 0x04361BB0&gt;</description></Placemark><Placemark id="577604684313157634"><name>CitizensConnect</name><Point><extrude>1</extrude><altitudeMode>relativeToGround</altitudeMode><coordinates>-71.10554444,42.30272017,0</coordinates></Point><description>&lt;map object at 0x04361B90&gt;</description></Placemark><Placemark id="577603336884633600"><name>CitizensConnect</name><Point><extrude>1</extrude><altitudeMode>relativeToGround</altitudeMode><coordinates>-71.05654222,42.36683839,0</coordinates></Point><description>&lt;map object at 0x04361B70&gt;</description></Placemark><Placemark id="577602708192010242"><name>CitizensConnect</name><Point><extrude>1</extrude><altitudeMode>relativeToGround</altitudeMode><coordinates>-71.061597,42.348243,0</coordinates></Point><description>&lt;map object at 0x04361BB0&gt;</description></Placemark><Placemark id="577597386610073602"><name>Chocobo Pie</name><Point><extrude>1</extrude><altitudeMode>relativeToGround</altitudeMode><coordinates>-71.0656,42.355,0</coordinates></Point><description>&lt;map object at 0x04361B90&gt;</description></Placemark><Placemark id="577596707883638784"><name>Venn</name><Point><extrude>1</extrude><altitudeMode>relativeToGround</altitudeMode><coordinates>-71.0785,42.39166389,0</coordinates></Point><description>&lt;map object at 0x04361B70&gt;</description></Placemark><Placemark id="577596271113953280"><name>Chocobo Pie</name><Point><extrude>1</extrude><altitudeMode>relativeToGround</altitudeMode><coordinates>-71.0656,42.355,0</coordinates></Point><description>&lt;map object at 0x04361BB0&gt;</description></Placemark><Placemark id="577595561827819521"><name>Chocobo Pie</name><Point><extrude>1</extrude><altitudeMode>relativeToGround</altitudeMode><coordinates>-71.0656,42.355,0</coordinates></Point><description>&lt;map object at 0x04361B90&gt;</description></Placemark><Placemark id="577594908774629376"><name>Alex Byer</name><Point><extrude>1</extrude><altitudeMode>relativeToGround</altitudeMode><coordinates>-71.15278171,42.33780228,0</coordinates></Point><description>&lt;map object at 0x04361B70&gt;</description></Placemark><Placemark id="577594202093166592"><name>JHammann</name><Point><extrude>1</extrude><altitudeMode>relativeToGround</altitudeMode><coordinates>-71.10120736,42.34940699,0</coordinates></Point><description>&lt;map object at 0x04361BB0&gt;</description></Placemark><Placemark id="577594191972339712"><name>Caitlin Fichtel</name><Point><extrude>1</extrude><altitudeMode>relativeToGround</altitudeMode><coordinates>-71.07555976,42.35011277,0</coordinates></Point><description>&lt;map object at 0x04361B90&gt;</description></Placemark><Placemark id="577592978849579008"><name>AJ Cabrera</name><Point><extrude>1</extrude><altitudeMode>relativeToGround</altitudeMode><coordinates>-71.0617,42.3578,0</coordinates></Point><description>&lt;map object at 0x04361B70&gt;</description></Placemark><Placemark id="577592921177923584"><name>CitizensConnect</name><Point><extrude>1</extrude><altitudeMode>relativeToGround</altitudeMode><coordinates>-71.16606206,42.28332341,0</coordinates></Point><description>&lt;map object at 0x04361BB0&gt;</description></Placemark><Placemark id="577587090919149568"><name>Maddie MacMaster</name><Point><extrude>1</extrude><altitudeMode>relativeToGround</altitudeMode><coordinates>-70.8538619,42.50536846,0</coordinates></Point><description>&lt;map object at 0x04361B90&gt;</description></Placemark><Placemark id="577585444315070464"><name>Lost in music</name><Point><extrude>1</extrude><altitudeMode>relativeToGround</altitudeMode><coordinates>-71.0625,42.35638889,0</coordinates></Point><description>&lt;map object at 0x04361B70&gt;</description></Placemark><Placemark id="577584221696438272"><name>jm</name><Point><extrude>1</extrude><altitudeMode>relativeToGround</altitudeMode><coordinates>-71.02630955,42.51837807,0</coordinates></Point><description>&lt;map object at 0x04361BB0&gt;</description></Placemark><Placemark id="577581603834228736"><name>Katia</name><Point><extrude>1</extrude><altitudeMode>relativeToGround</altitudeMode><coordinates>-71.0656,42.355,0</coordinates></Point><description>&lt;map object at 0x04361B90&gt;</description></Placemark><Placemark id="577578897463767041"><name>Ryan Shamp</name><Point><extrude>1</extrude><altitudeMode>relativeToGround</altitudeMode><coordinates>-71.21427455,42.40022433,0</coordinates></Point><description>&lt;map object at 0x04361B70&gt;</description></Placemark><Placemark id="577571348375072768"><name>CitizensConnect</name><Point><extrude>1</extrude><altitudeMode>relativeToGround</altitudeMode><coordinates>-71.16496822,42.28704621,0</coordinates></Point><description>&lt;map object at 0x04361BB0&gt;</description></Placemark><Placemark id="577571224311767040"><name>CitizensConnect</name><Point><extrude>1</extrude><altitudeMode>relativeToGround</altitudeMode><coordinates>-71.16488105,42.28698066,0</coordinates></Point><description>&lt;map object at 0x04361B90&gt;</description></Placemark><Placemark id="577570954999701504"><name>CitizensConnect</name><Point><extrude>1</extrude><altitudeMode>relativeToGround</altitudeMode><coordinates>-71.16396968,42.28596909,0</coordinates></Point><description>&lt;map object at 0x04361B70&gt;</description></Placemark><Placemark id="577570704507432960"><name>CitizensConnect</name><Point><extrude>1</extrude><altitudeMode>relativeToGround</altitudeMode><coordinates>-71.16352486,42.28555607,0</coordinates></Point><description>&lt;map object at 0x04361BB0&gt;</description></Placemark><Placemark id="577560570410348544"><name>Boston Press</name><Point><extrude>1</extrude><altitudeMode>relativeToGround</altitudeMode><coordinates>-71.0552516,42.3561185,0</coordinates></Point><description>&lt;map object at 0x04361B90&gt;</description></Placemark><Placemark id="577560468493111296"><name>Scott Davis</name><Point><extrude>1</extrude><altitudeMode>relativeToGround</altitudeMode><coordinates>-71.07330322,42.36757278,0</coordinates></Point><description>&lt;map object at 0x04361B70&gt;</description></Placemark><Placemark id="577556654809550848"><name>Peter Frady</name><Point><extrude>1</extrude><altitudeMode>relativeToGround</altitudeMode><coordinates>-71.00294266,42.39124918,0</coordinates></Point><description>&lt;map object at 0x04361BB0&gt;</description></Placemark><Placemark id="577556487226175489"><name>Casey Parrish&#9825; PCD</name><Point><extrude>1</extrude><altitudeMode>relativeToGround</altitudeMode><coordinates>-71.0636759,42.41419573,0</coordinates></Point><description>&lt;map object at 0x04361B90&gt;</description></Placemark><Placemark id="577552326384345088"><name>Chris Pollone</name><Point><extrude>1</extrude><altitudeMode>relativeToGround</altitudeMode><coordinates>-71.05526476,42.36010901,0</coordinates></Point><description>&lt;map object at 0x04361B70&gt;</description></Placemark><Placemark id="577551997118889985"><name>Frank Brogie</name><Point><extrude>1</extrude><altitudeMode>relativeToGround</altitudeMode><coordinates>-71.08416667,42.34916667,0</coordinates></Point><description>&lt;map object at 0x04361BB0&gt;</description></Placemark><Placemark id="577544399833432064"><name>BostonTweet</name><Point><extrude>1</extrude><altitudeMode>relativeToGround</altitudeMode><coordinates>-71.06812351,42.35456827,0</coordinates></Point><description>&lt;map object at 0x04361B90&gt;</description></Placemark><Placemark id="577540360123097088"><name>Ryan Shamp</name><Point><extrude>1</extrude><altitudeMode>relativeToGround</altitudeMode><coordinates>-71.27118168,42.4480611,0</coordinates></Point><description>&lt;map object at 0x04361B70&gt;</description></Placemark><Placemark id="577532465763454976"><name>Turtle</name><Point><extrude>1</extrude><altitudeMode>relativeToGround</altitudeMode><coordinates>-71.05091097,42.36251791,0</coordinates></Point><description>&lt;map object at 0x04361BB0&gt;</description></Placemark><Placemark id="577529644070477824"><name>Jack Weinstein</name><Point><extrude>1</extrude><altitudeMode>relativeToGround</altitudeMode><coordinates>-71.10935667,42.34534479,0</coordinates></Point><description>&lt;map object at 0x04361B90&gt;</description></Placemark><Placemark id="577528784515149824"><name>CitizensConnect</name><Point><extrude>1</extrude><altitudeMode>relativeToGround</altitudeMode><coordinates>-71.0529959,42.3671519,0</coordinates></Point><description>&lt;map object at 0x04361B70&gt;</description></Placemark><Placemark id="577528772251017216"><name>CitizensConnect</name><Point><extrude>1</extrude><altitudeMode>relativeToGround</altitudeMode><coordinates>-71.053031,42.3671022,0</coordinates></Point><description>&lt;map object at 0x04361BB0&gt;</description></Placemark><Placemark id="577528254929768448"><name>CitizensConnect</name><Point><extrude>1</extrude><altitudeMode>relativeToGround</altitudeMode><coordinates>-71.03348449,42.37666262,0</coordinates></Point><description>&lt;map object at 0x04361B90&gt;</description></Placemark><Placemark id="577527893271666689"><name>CitizensConnect</name><Point><extrude>1</extrude><altitudeMode>relativeToGround</altitudeMode><coordinates>-71.0645928,42.3466236,0</coordinates></Point><description>&lt;map object at 0x04361B70&gt;</description></Placemark><Placemark id="577521471725170688"><name>Quasia</name><Point><extrude>1</extrude><altitudeMode>relativeToGround</altitudeMode><coordinates>-71.16573297,42.3233061,0</coordinates></Point><description>&lt;map object at 0x04361BB0&gt;</description></Placemark><Placemark id="577517907275558912"><name>CitizensConnect</name><Point><extrude>1</extrude><altitudeMode>relativeToGround</altitudeMode><coordinates>-71.0754695,42.34203,0</coordinates></Point><description>&lt;map object at 0x04361B90&gt;</description></Placemark><Placemark id="577515538198499328"><name>Mackenzie Newcomb</name><Point><extrude>1</extrude><altitudeMode>relativeToGround</altitudeMode><coordinates>-71.08709284,42.34955194,0</coordinates></Point><description>&lt;map object at 0x04361B70&gt;</description></Placemark><Placemark id="577515226473562112"><name>CitizensConnect</name><Point><extrude>1</extrude><altitudeMode>relativeToGround</altitudeMode><coordinates>-71.1180394,42.291128,0</coordinates></Point><description>&lt;map object at 0x04361BB0&gt;</description></Placemark><Placemark id="577511417844260864"><name>kayla</name><Point><extrude>1</extrude><altitudeMode>relativeToGround</altitudeMode><coordinates>-71.02005597,42.26176899,0</coordinates></Point><description>&lt;map object at 0x04361B90&gt;</description></Placemark><Placemark id="577508368073433089"><name>CitizensConnect</name><Point><extrude>1</extrude><altitudeMode>relativeToGround</altitudeMode><coordinates>-71.1189658,42.28539559,0</coordinates></Point><description>&lt;map object at 0x04361B70&gt;</description></Placemark><Placemark id="577505014693949440"><name>Lisa Frieze</name><Point><extrude>1</extrude><altitudeMode>relativeToGround</altitudeMode><coordinates>-71.10024368,42.47545192,0</coordinates></Point><description>&lt;map object at 0x04361BB0&gt;</description></Placemark><Placemark id="577501773734227968"><name>CitizensConnect</name><Point><extrude>1</extrude><altitudeMode>relativeToGround</altitudeMode><coordinates>-71.11202489,42.30803868,0</coordinates></Point><description>&lt;map object at 0x04361B90&gt;</description></Placemark><Placemark id="577501381969494016"><name>CitizensConnect</name><Point><extrude>1</extrude><altitudeMode>relativeToGround</altitudeMode><coordinates>-71.10652571,42.30097046,0</coordinates></Point><description>&lt;map object at 0x04361B70&gt;</description></Placemark><Placemark id="577501012535222273"><name>CitizensConnect</name><Point><extrude>1</extrude><altitudeMode>relativeToGround</altitudeMode><coordinates>-71.1161852,42.3074826,0</coordinates></Point><description>&lt;map object at 0x02D4E4B0&gt;</description></Placemark><Placemark id="577499849228156928"><name>W.</name><Point><extrude>1</extrude><altitudeMode>relativeToGround</altitudeMode><coordinates>-70.98803186,42.36021917,0</coordinates></Point><description>&lt;map object at 0x02D4E4D0&gt;</description></Placemark><Placemark id="577498881216405504"><name>Katie Croce</name><Point><extrude>1</extrude><altitudeMode>relativeToGround</altitudeMode><coordinates>-71.0703134,42.49691833,0</coordinates></Point><description>&lt;map object at 0x02D4E530&gt;</description></Placemark><Placemark id="577498857023602688"><name>CitizensConnect</name><Point><extrude>1</extrude><altitudeMode>relativeToGround</altitudeMode><coordinates>-71.1094157,42.3182627,0</coordinates></Point><description>&lt;map object at 0x02D4E4B0&gt;</description></Placemark><Placemark id="577498031295213568"><name>Blake Parker</name><Point><extrude>1</extrude><altitudeMode>relativeToGround</altitudeMode><coordinates>-71.108359,42.3666514,0</coordinates></Point><description>&lt;map object at 0x02D4E4D0&gt;</description></Placemark><Placemark id="577488064576106496"><name>Sharon Schindler</name><Point><extrude>1</extrude><altitudeMode>relativeToGround</altitudeMode><coordinates>-71.2292997,42.34113363,0</coordinates></Point><description>&lt;map object at 0x02D4E530&gt;</description></Placemark><Placemark id="577486924660641793"><name>&#8224;ori sn&#8734;w</name><Point><extrude>1</extrude><altitudeMode>relativeToGround</altitudeMode><coordinates>-71.25387184,42.40968358,0</coordinates></Point><description>&lt;map object at 0x02D4E4B0&gt;</description></Placemark><Placemark id="577486863063076864"><name>&#8224;ori sn&#8734;w</name><Point><extrude>1</extrude><altitudeMode>relativeToGround</altitudeMode><coordinates>-71.25387184,42.40968358,0</coordinates></Point><description>&lt;map object at 0x02D4E4D0&gt;</description></Placemark><Placemark id="577486505679044608"><name>stephen</name><Point><extrude>1</extrude><altitudeMode>relativeToGround</altitudeMode><coordinates>-70.91025181,42.17603113,0</coordinates></Point><description>&lt;map object at 0x02D4E530&gt;</description></Placemark><Placemark id="577484998737022976"><name>Michael Walsh</name><Point><extrude>1</extrude><altitudeMode>relativeToGround</altitudeMode><coordinates>-71.05531474,42.38142442,0</coordinates></Point><description>&lt;map object at 0x02D4E4B0&gt;</description></Placemark><Placemark id="577481974497079296"><name>virginia b. johnson</name><Point><extrude>1</extrude><altitudeMode>relativeToGround</altitudeMode><coordinates>-71.104729,42.370617,0</coordinates></Point><description>&lt;map object at 0x02D4E4D0&gt;</description></Placemark><Placemark id="577479400263954432"><name>&#9758; &#5108;&#5062;&#5034;N&#5087;&#5034; &#5047;&#5034;&#5025;&#5062;&#5036; &#9756;</name><Point><extrude>1</extrude><altitudeMode>relativeToGround</altitudeMode><coordinates>-71.06288603,42.36494967,0</coordinates></Point><description>&lt;map object at 0x02D4E530&gt;</description></Placemark><Placemark id="577475624052330496"><name>Jeremy Irland</name><Point><extrude>1</extrude><altitudeMode>relativeToGround</altitudeMode><coordinates>-70.89573286,42.50097449,0</coordinates></Point><description>&lt;map object at 0x02D4E4B0&gt;</description></Placemark><Placemark id="577472067588775936"><name>Doug Cope</name><Point><extrude>1</extrude><altitudeMode>relativeToGround</altitudeMode><coordinates>-70.9179829,42.2392136,0</coordinates></Point><description>&lt;map object at 0x02D4E4D0&gt;</description></Placemark><Placemark id="577468143783796737"><name>Fellinline</name><Point><extrude>1</extrude><altitudeMode>relativeToGround</altitudeMode><coordinates>-71.0726018,42.3443023,0</coordinates></Point><description>&lt;map object at 0x02D4E530&gt;</description></Placemark><Placemark id="577467574839078912"><name>CitizensConnect</name><Point><extrude>1</extrude><altitudeMode>relativeToGround</altitudeMode><coordinates>-71.04989644,42.34004834,0</coordinates></Point><description>&lt;map object at 0x02D4E4B0&gt;</description></Placemark><Placemark id="577467023481020416"><name>Jules JPC</name><Point><extrude>1</extrude><altitudeMode>relativeToGround</altitudeMode><coordinates>-71.08740806,42.37186925,0</coordinates></Point><description>&lt;map object at 0x02D4E4D0&gt;</description></Placemark><Placemark id="577466708660736000"><name>Jules JPC</name><Point><extrude>1</extrude><altitudeMode>relativeToGround</altitudeMode><coordinates>-71.08755229,42.37052205,0</coordinates></Point><description>&lt;map object at 0x02D4E530&gt;</description></Placemark><Placemark id="577464932977008640"><name>&#8224;ori sn&#8734;w</name><Point><extrude>1</extrude><altitudeMode>relativeToGround</altitudeMode><coordinates>-71.26763535,42.41589959,0</coordinates></Point><description>&lt;map object at 0x02D4E4B0&gt;</description></Placemark><Placemark id="577463326659182592"><name>Craig Butters</name><Point><extrude>1</extrude><altitudeMode>relativeToGround</altitudeMode><coordinates>-71.05503972,42.35606881,0</coordinates></Point><description>&lt;map object at 0x02D4E4D0&gt;</description></Placemark><Placemark id="577462492751884288"><name>CitizensConnect</name><Point><extrude>1</extrude><altitudeMode>relativeToGround</altitudeMode><coordinates>-71.05814581,42.37474245,0</coordinates></Point><description>&lt;map object at 0x02D4E530&gt;</description></Placemark><Placemark id="577462471801348096"><name>CitizensConnect</name><Point><extrude>1</extrude><altitudeMode>relativeToGround</altitudeMode><coordinates>-71.12283354,42.28760607,0</coordinates></Point><description>&lt;map object at 0x02D4E4B0&gt;</description></Placemark><Placemark id="577458177383522304"><name>CitizensConnect</name><Point><extrude>1</extrude><altitudeMode>relativeToGround</altitudeMode><coordinates>-71.07078203,42.33006021,0</coordinates></Point><description>&lt;map object at 0x02D4E4D0&gt;</description></Placemark><Placemark id="577456838108655616"><name>Matt Mues</name><Point><extrude>1</extrude><altitudeMode>relativeToGround</altitudeMode><coordinates>-71.0709059,42.35375589,0</coordinates></Point><description>&lt;map object at 0x02D4E530&gt;</description></Placemark><Placemark id="577453244458393600"><name>#spraangbreaak</name><Point><extrude>1</extrude><altitudeMode>relativeToGround</altitudeMode><coordinates>-71.30314082,42.29380265,0</coordinates></Point><description>&lt;map object at 0x02D4E4B0&gt;</description></Placemark><Placemark id="577450690244517888"><name>Caitlin Mann</name><Point><extrude>1</extrude><altitudeMode>relativeToGround</altitudeMode><coordinates>-71.09178146,42.38942596,0</coordinates></Point><description>&lt;map object at 0x02D4E4D0&gt;</description></Placemark><Placemark id="577450095232311296"><name>Chen Cao</name><Point><extrude>1</extrude><altitudeMode>relativeToGround</altitudeMode><coordinates>-71.02438594,42.38028446,0</coordinates></Point><description>&lt;map object at 0x02D4E530&gt;</description></Placemark><Placemark id="577446669526147072"><name>Douglas Finlay</name><Point><extrude>1</extrude><altitudeMode>relativeToGround</altitudeMode><coordinates>-71.0615569,42.3503318,0</coordinates></Point><description>&lt;map object at 0x02D4E4B0&gt;</description></Placemark><Placemark id="577444479608745984"><name>Liv</name><Point><extrude>1</extrude><altitudeMode>relativeToGround</altitudeMode><coordinates>-71.04092757,42.41535649,0</coordinates></Point><description>&lt;map object at 0x02D4E4D0&gt;</description></Placemark><Placemark id="577443925708902400"><name>Brittany Trimble</name><Point><extrude>1</extrude><altitudeMode>relativeToGround</altitudeMode><coordinates>-71.10682326,42.33853276,0</coordinates></Point><description>&lt;map object at 0x02D4E530&gt;</description></Placemark><Placemark id="577442943440707584"><name>Huggable BradHound </name><Point><extrude>1</extrude><altitudeMode>relativeToGround</altitudeMode><coordinates>-71.0538863,42.4064495,0</coordinates></Point><description>&lt;map object at 0x02D4E4B0&gt;</description></Placemark><Placemark id="577441958764920832"><name>Fibby The Swiggy &#12369;&#12418;&#12398;</name><Point><extrude>1</extrude><altitudeMode>relativeToGround</altitudeMode><coordinates>-71.01667643,42.36650312,0</coordinates></Point><description>&lt;map object at 0x02D4E4D0&gt;</description></Placemark><Placemark id="577441715918761984"><name>Boston Press</name><Point><extrude>1</extrude><altitudeMode>relativeToGround</altitudeMode><coordinates>-71.0552516,42.3561185,0</coordinates></Point><description>&lt;map object at 0x02D4E530&gt;</description></Placemark><Placemark id="577436093165019136"><name>TaurusSeason&#10160;&#9801;</name><Point><extrude>1</extrude><altitudeMode>relativeToGround</altitudeMode><coordinates>-70.94535783,42.46974609,0</coordinates></Point><description>&lt;map object at 0x02D4E4B0&gt;</description></Placemark><Placemark id="577430656029949954"><name>Cuddy</name><Point><extrude>1</extrude><altitudeMode>relativeToGround</altitudeMode><coordinates>-71.0054238,42.38687586,0</coordinates></Point><description>&lt;map object at 0x02D4E4D0&gt;</description></Placemark><Placemark id="577430432876199936"><name>Andrew</name><Point><extrude>1</extrude><altitudeMode>relativeToGround</altitudeMode><coordinates>-71.04956085,42.30060315,0</coordinates></Point><description>&lt;map object at 0x02D4E530&gt;</description></Placemark><Placemark id="577429447202246656"><name>CitizensConnect</name><Point><extrude>1</extrude><altitudeMode>relativeToGround</altitudeMode><coordinates>-71.06733506,42.37992154,0</coordinates></Point><description>&lt;map object at 0x02D4E4B0&gt;</description></Placemark><Placemark id="577429111326539776"><name>WILLY WARNER</name><Point><extrude>1</extrude><altitudeMode>relativeToGround</altitudeMode><coordinates>-71.0653084,42.3298963,0</coordinates></Point><description>&lt;map object at 0x02D4E4D0&gt;</description></Placemark><Placemark id="577427855501631488"><name>Brittany Bang</name><Point><extrude>1</extrude><altitudeMode>relativeToGround</altitudeMode><coordinates>-71.08893749,42.35150222,0</coordinates></Point><description>&lt;map object at 0x02D4E530&gt;</description></Placemark><Placemark id="577427284879093760"><name>CitizensConnect</name><Point><extrude>1</extrude><altitudeMode>relativeToGround</altitudeMode><coordinates>-71.055831,42.331964,0</coordinates></Point><description>&lt;map object at 0x02D4E4B0&gt;</description></Placemark><Placemark id="577424953567526912"><name>Adriana Linares</name><Point><extrude>1</extrude><altitudeMode>relativeToGround</altitudeMode><coordinates>-71.08734319,42.36041087,0</coordinates></Point><description>&lt;map object at 0x02D4E4D0&gt;</description></Placemark><Placemark id="577422537249976320"><name>Michael J Lanzo</name><Point><extrude>1</extrude><altitudeMode>relativeToGround</altitudeMode><coordinates>-71.0690426,42.3316973,0</coordinates></Point><description>&lt;map object at 0x02D4E530&gt;</description></Placemark><Placemark id="577421533053890560"><name>Michael J Lanzo</name><Point><extrude>1</extrude><altitudeMode>relativeToGround</altitudeMode><coordinates>-71.0690574,42.3317027,0</coordinates></Point><description>&lt;map object at 0x02D4E4B0&gt;</description></Placemark><Placemark id="577421368486174720"><name>Ryan Shamp</name><Point><extrude>1</extrude><altitudeMode>relativeToGround</altitudeMode><coordinates>-71.2141525,42.40017666,0</coordinates></Point><description>&lt;map object at 0x02D4E4D0&gt;</description></Placemark><Placemark id="577421132011298816"><name>Ryan Shamp</name><Point><extrude>1</extrude><altitudeMode>relativeToGround</altitudeMode><coordinates>-71.2141525,42.40017666,0</coordinates></Point><description>&lt;map object at 0x02D4E530&gt;</description></Placemark><Placemark id="577420362721329152"><name>Boston Press</name><Point><extrude>1</extrude><altitudeMode>relativeToGround</altitudeMode><coordinates>-71.0552516,42.3561185,0</coordinates></Point><description>&lt;map object at 0x02D4E4B0&gt;</description></Placemark><Placemark id="577420181615599616"><name>CitizensConnect</name><Point><extrude>1</extrude><altitudeMode>relativeToGround</altitudeMode><coordinates>-71.06425844,42.38115435,0</coordinates></Point><description>&lt;map object at 0x02D4E4D0&gt;</description></Placemark><Placemark id="577418780722225152"><name>CitizensConnect</name><Point><extrude>1</extrude><altitudeMode>relativeToGround</altitudeMode><coordinates>-71.06680971,42.37804498,0</coordinates></Point><description>&lt;map object at 0x02D4E530&gt;</description></Placemark><Placemark id="577417484195786752"><name>Kristin</name><Point><extrude>1</extrude><altitudeMode>relativeToGround</altitudeMode><coordinates>-70.9340472,42.5286704,0</coordinates></Point><description>&lt;map object at 0x02D4E4B0&gt;</description></Placemark><Placemark id="577414962827685888"><name>Michael J Lanzo</name><Point><extrude>1</extrude><altitudeMode>relativeToGround</altitudeMode><coordinates>-71.01556519,42.366146,0</coordinates></Point><description>&lt;map object at 0x02D4E4D0&gt;</description></Placemark><Placemark id="577408542942109697"><name>cradi</name><Point><extrude>1</extrude><altitudeMode>relativeToGround</altitudeMode><coordinates>-71.01667643,42.36650312,0</coordinates></Point><description>&lt;map object at 0x02D4E530&gt;</description></Placemark><Placemark id="577406741735866368"><name>Roger Michael McNall</name><Point><extrude>1</extrude><altitudeMode>relativeToGround</altitudeMode><coordinates>-71.2878,42.3063,0</coordinates></Point><description>&lt;map object at 0x02D4E4B0&gt;</description></Placemark><Placemark id="577353491288576000"><name>Amy Goldfeder</name><Point><extrude>1</extrude><altitudeMode>relativeToGround</altitudeMode><coordinates>-71.06214775,42.39965858,0</coordinates></Point><description>&lt;map object at 0x02D4E4D0&gt;</description></Placemark><Placemark id="577329023765729281"><name>Ruben Ruiz</name><Point><extrude>1</extrude><altitudeMode>relativeToGround</altitudeMode><coordinates>-71.13783981,42.34775454,0</coordinates></Point><description>&lt;map object at 0x02D4E530&gt;</description></Placemark><Placemark id="577326333195366400"><name>D&#8707;NIS</name><Point><extrude>1</extrude><altitudeMode>relativeToGround</altitudeMode><coordinates>-71.0302267,42.3895408,0</coordinates></Point><description>&lt;map object at 0x02D4E4B0&gt;</description></Placemark><Placemark id="577323710912270338"><name>Jeffrey Horn</name><Point><extrude>1</extrude><altitudeMode>relativeToGround</altitudeMode><coordinates>-71.06070206,42.35719667,0</coordinates></Point><description>&lt;map object at 0x02D4E4D0&gt;</description></Placemark><Placemark id="577321938395246592"><name>William Russo</name><Point><extrude>1</extrude><altitudeMode>relativeToGround</altitudeMode><coordinates>-71.0309934,42.4363722,0</coordinates></Point><description>&lt;map object at 0x02D4E530&gt;</description></Placemark><Placemark id="577321237015367681"><name>Nomi S. Burstein</name><Point><extrude>1</extrude><altitudeMode>relativeToGround</altitudeMode><coordinates>-71.13786351,42.33749937,0</coordinates></Point><description>&lt;map object at 0x02D4E4B0&gt;</description></Placemark><Placemark id="577320247037992960"><name>Mike Wendt</name><Point><extrude>1</extrude><altitudeMode>relativeToGround</altitudeMode><coordinates>-71.1829799,42.3824354,0</coordinates></Point><description>&lt;map object at 0x02D4E4D0&gt;</description></Placemark><Placemark id="577315198131900416"><name>sarah mceneaney</name><Point><extrude>1</extrude><altitudeMode>relativeToGround</altitudeMode><coordinates>-71.07627752,42.33687756,0</coordinates></Point><description>&lt;map object at 0x02D4E530&gt;</description></Placemark><Placemark id="577314049379164161"><name>CitizensConnect</name><Point><extrude>1</extrude><altitudeMode>relativeToGround</altitudeMode><coordinates>-71.05294048,42.3194957,0</coordinates></Point><description>&lt;map object at 0x02D4E4B0&gt;</description></Placemark><Placemark id="577311822946168832"><name>Jessica Kwasnik</name><Point><extrude>1</extrude><altitudeMode>relativeToGround</altitudeMode><coordinates>-71.17317234,42.33364967,0</coordinates></Point><description>&lt;map object at 0x02D4E4D0&gt;</description></Placemark><Placemark id="577308142586966016"><name>Thierry Hygino</name><Point><extrude>1</extrude><altitudeMode>relativeToGround</altitudeMode><coordinates>-71.03410458,42.43970049,0</coordinates></Point><description>&lt;map object at 0x02D4E530&gt;</description></Placemark><Placemark id="577307512694706176"><name>Jake Nolastname</name><Point><extrude>1</extrude><altitudeMode>relativeToGround</altitudeMode><coordinates>-71.12951706,42.40852286,0</coordinates></Point><description>&lt;map object at 0x02D4E4B0&gt;</description></Placemark><Placemark id="577306918705741824"><name>David Putney</name><Point><extrude>1</extrude><altitudeMode>relativeToGround</altitudeMode><coordinates>-71.138639,42.349237,0</coordinates></Point><description>&lt;map object at 0x02D4E4D0&gt;</description></Placemark><Placemark id="577306909075632128"><name>David Carbone</name><Point><extrude>1</extrude><altitudeMode>relativeToGround</altitudeMode><coordinates>-71.1567821,42.4740107,0</coordinates></Point><description>&lt;map object at 0x02D4E530&gt;</description></Placemark><Placemark id="577304792000806912"><name>Tyler Hohlstein</name><Point><extrude>1</extrude><altitudeMode>relativeToGround</altitudeMode><coordinates>-71.08901493,42.34597098,0</coordinates></Point><description>&lt;map object at 0x02D4E4B0&gt;</description></Placemark><Placemark id="577303841613348864"><name>Erica Soma</name><Point><extrude>1</extrude><altitudeMode>relativeToGround</altitudeMode><coordinates>-71.07305556,42.33972222,0</coordinates></Point><description>&lt;map object at 0x02D4E4D0&gt;</description></Placemark><Placemark id="577302086905364480"><name>Tori Beliveau</name><Point><extrude>1</extrude><altitudeMode>relativeToGround</altitudeMode><coordinates>-70.97202616,42.47835158,0</coordinates></Point><description>&lt;map object at 0x02D4E530&gt;</description></Placemark><Placemark id="577301550059618306"><name>Bruce Peck</name><Point><extrude>1</extrude><altitudeMode>relativeToGround</altitudeMode><coordinates>-70.846544,42.266404,0</coordinates></Point><description>&lt;map object at 0x02D4E4B0&gt;</description></Placemark><Placemark id="577298833908088832"><name>Katherine Larson</name><Point><extrude>1</extrude><altitudeMode>relativeToGround</altitudeMode><coordinates>-71.070227,42.35340253,0</coordinates></Point><description>&lt;map object at 0x02D4E4D0&gt;</description></Placemark><Placemark id="577295535335419904"><name>Ruben Ruiz</name><Point><extrude>1</extrude><altitudeMode>relativeToGround</altitudeMode><coordinates>-71.0656,42.355,0</coordinates></Point><description>&lt;map object at 0x02D4E530&gt;</description></Placemark><Placemark id="577295427155812352"><name>Kark</name><Point><extrude>1</extrude><altitudeMode>relativeToGround</altitudeMode><coordinates>-71.09077831,42.50403801,0</coordinates></Point><description>&lt;map object at 0x02D4E4B0&gt;</description></Placemark></Folder></Document></kml>